stop_id,stop_name,stop_code,stop_lat,stop_lon,zone_id
KokusaiKogyoBus.Rikkyoudaigaku.75.1,立教大学,1,35.7288778474922,139.702263165315,KokusaiKogyoBus.Rikkyoudaigaku.75.1
KokusaiKogyoBus.DewaHori.1434.1,出羽堀,1,35.87244787724,139.784327198052,KokusaiKogyoBus.DewaHori.1434.1
TokyuBus.Higashiyamataeki.00241038.,東山田駅,,35.554997,139.602252,TokyuBus.Higashiyamataeki.00241038.
TokyuBus.Shimoumaitchoume.00240026.1,下馬一丁目,1,35.640182,139.682064,TokyuBus.Shimoumaitchoume.00240026.1
TokyuBus.Shimoumaeigyousho.00240027.,下馬営業所,,35.637667,139.682481,TokyuBus.Shimoumaeigyousho.00240027.
TokyuBus.Nakameguroeki.00240097.4,中目黒駅,4,35.643905,139.699352,TokyuBus.Nakameguroeki.00240097.4
Toei.ShinYotsugibashi.2237.2,新四ツ木橋,2,35.728856,139.826908,Toei.ShinYotsugibashi.2237.2
KokusaiKogyoBus.GoSaRo.720.3,五差路,3,35.8102589897184,139.67415787638,KokusaiKogyoBus.GoSaRo.720.3
KantoBus.Nishikoukouminami.30017.1,西高校南（すぎ丸）,1,35.69032325900125,139.60360238884175,KantoBus.Nishikoukouminami.30017.1
KantoBus.Tensojinjamae.30047.2,天祖神社前（すぎ丸）,2,35.70127376473456,139.60862756447094,KantoBus.Tensojinjamae.30047.2
TokyuBus.Senzokuike.00240597.,洗足池,,35.600011,139.690663,TokyuBus.Senzokuike.00240597.
TokyuBus.Megurofudouson.00240463.,目黒不動尊,,35.627572,139.708046,TokyuBus.Megurofudouson.00240463.
TokyuBus.Rinshinomoriiriguchi.00240462.,林試の森入口,,35.626915,139.706994,TokyuBus.Rinshinomoriiriguchi.00240462.
TokyuBus.Iriyabashi.00240461.,入谷橋,,35.626963,139.704174,TokyuBus.Iriyabashi.00240461.
TokyuBus.Takatsukoukoumae.00240683.,高津高校前,,35.595985,139.615213,TokyuBus.Takatsukoukoumae.00240683.
TokyuBus.Wakabayashiorikaeshijo.00240022.,若林折返所,,35.650163,139.662956,TokyuBus.Wakabayashiorikaeshijo.00240022.
TokyuBus.Awashima.00240018.,淡島,,35.654366,139.67302,TokyuBus.Awashima.00240018.
TokyuBus.Senzokueki.00240453.,洗足駅,,35.610213,139.694325,TokyuBus.Senzokueki.00240453.
TokyuBus.Toukyougakuenkoukoudoori.00240460.,東京学園高校通り,,35.628089,139.702577,TokyuBus.Toukyougakuenkoukoudoori.00240460.
TokyuBus.Shimomegurogochoume.00240459.,下目黒五丁目,,35.629971,139.702038,TokyuBus.Shimomegurogochoume.00240459.
TokyuBus.Miyamaeyuubinkyokumae.00240699.2,宮前郵便局前,2,35.575747,139.576773,TokyuBus.Miyamaeyuubinkyokumae.00240699.2
TokyuBus.Midorikenzeijimusho.00241040.1,緑県税事務所,1,35.550522,139.538597,TokyuBus.Midorikenzeijimusho.00241040.1
TokyuBus.Hiratsusansaro.00241237.1,平津三叉路,1,35.586702,139.546408,TokyuBus.Hiratsusansaro.00241237.1
TokyuBus.Touyokosenkosugieki.00240795.,東横線小杉駅,,35.573564,139.658275,TokyuBus.Touyokosenkosugieki.00240795.
TokyuBus.Motosumiyoshiekiiriguchi.00240818.,元住吉駅入口,,35.564102,139.655915,TokyuBus.Motosumiyoshiekiiriguchi.00240818.
TokyuBus.Tsunashimaekiiriguchi.00240929.,綱島駅入口,,35.537607,139.636537,TokyuBus.Tsunashimaekiiriguchi.00240929.
KokusaiKogyoBus.Midorigaoka.222.2,緑ヶ丘,2,35.7921977477234,139.588639616902,KokusaiKogyoBus.Midorigaoka.222.2
KokusaiKogyoBus.HikarigaokaEki.121.2,光が丘駅,2,35.7589376301933,139.630038265952,KokusaiKogyoBus.HikarigaokaEki.121.2
KokusaiKogyoBus.JieitaiMinami.122.2,自衛隊南,2,35.7592280905631,139.65909394603,KokusaiKogyoBus.JieitaiMinami.122.2
KokusaiKogyoBus.HeiwaDaiYonChoume.123.1,平和台四丁目,1,35.7570061102239,139.658785902219,KokusaiKogyoBus.HeiwaDaiYonChoume.123.1
KokusaiKogyoBus.HikarigaokaEki.121.12,光が丘駅,12,35.7589777722825,139.630002460082,KokusaiKogyoBus.HikarigaokaEki.121.12
KokusaiKogyoBus.HeiwaDaiSanChoume.124.2,平和台三丁目,2,35.7572644262409,139.662458539975,KokusaiKogyoBus.HeiwaDaiSanChoume.124.2
KokusaiKogyoBus.HikawadaiYonChoume.125.1,氷川台四丁目,1,35.7562337748992,139.664269408738,KokusaiKogyoBus.HikawadaiYonChoume.125.1
KokusaiKogyoBus.HikawadaiYonChoume.125.2,氷川台四丁目,2,35.7563856629505,139.664099061165,KokusaiKogyoBus.HikawadaiYonChoume.125.2
TokyuBus.Ookurayamaekiiriguchi.00241039.,大倉山駅入口,,35.520762,139.632898,TokyuBus.Ookurayamaekiiriguchi.00241039.
TokyuBus.Nakamachidaieki.00240960.,仲町台駅,,35.535094,139.58887,TokyuBus.Nakamachidaieki.00240960.
TokyuBus.Ikejiri.00240054.C,池尻,C,35.650183,139.683268,TokyuBus.Ikejiri.00240054.C
TokyuBus.Shibuyaeki.00240143.91,渋谷駅（マークシティ）,91,35.658419,139.69878,TokyuBus.Shibuyaeki.00240143.91
TokyuBus.Aobakusougouchousha.00241041.1,青葉区総合庁舎,1,35.552582,139.536833,TokyuBus.Aobakusougouchousha.00241041.1
TokyuBus.Gotenbapuremiamuautoretto.00241390.,御殿場プレミアムアウトレット,,35.307443,138.96218,TokyuBus.Gotenbapuremiamuautoretto.00241390.
TokyuBus.NakazatogakuenIriguchi.00241046.2,中里学園入口,2,35.561942,139.524507,TokyuBus.NakazatogakuenIriguchi.00241046.2
TokyuBus.Yoshidabashi.00240951.1,吉田橋,1,35.540935,139.627961,TokyuBus.Yoshidabashi.00240951.1
TokyuBus.TouingakuenIriguchi.00241047.3,桐蔭学園入口,3,35.563514,139.519669,TokyuBus.TouingakuenIriguchi.00241047.3
TokyuBus.Komadome.00240362.,駒留,,35.639234,139.66043,TokyuBus.Komadome.00240362.
TokyuBus.Wakabayashikouban.00240363.,若林交番,,35.641603,139.661195,TokyuBus.Wakabayashikouban.00240363.
TokyuBus.Shimohirama.00240803.,下平間,,35.552155,139.680594,TokyuBus.Shimohirama.00240803.
TokyuBus.Kamoshidadanchi.00241150.,鴨志田団地,,35.565365,139.503927,TokyuBus.Kamoshidadanchi.00241150.
TokyuBus.Fujisangogoume.00241393.,富士山五合目,,35.394192,138.732476,TokyuBus.Fujisangogoume.00241393.
TokyuBus.Megurochuuouchuugakkou.00240260.,目黒中央中学校,,35.634877,139.692769,TokyuBus.Megurochuuouchuugakkou.00240260.
TokyuBus.Shimoumaitchoume.00240026.2,下馬一丁目,2,35.640182,139.682064,TokyuBus.Shimoumaitchoume.00240026.2
TokyuBus.Ootorijinjamae.00240482.1,大鳥神社前,1,35.633061,139.707944,TokyuBus.Ootorijinjamae.00240482.1
NishiTokyoBus.Kawaino.1270.1,川井野,1,35.6682500819946,139.202659373135,NishiTokyoBus.Kawaino.1270.1
KantoBus.Tanashieki.10114.1,田無駅：西武,1,35.727919329785415,139.54023388383752,KantoBus.Tanashieki.10114.1
NishiTokyoBus.Omatsuri.6810.10,お祭,10,35.7859386461962,138.966473568976,NishiTokyoBus.Omatsuri.6810.10
NishiTokyoBus.Oshigaito.6870.10,押垣外,10,35.7880691389701,138.928217203586,NishiTokyoBus.Oshigaito.6870.10
KokusaiKogyoBus.KenchouUra.1618.1,県庁裏,1,35.8572538366897,139.647185607383,KokusaiKogyoBus.KenchouUra.1618.1
KokusaiKogyoBus.SuidouTankuMae.28.1,水道タンク前,1,35.7455553377879,139.690324485769,KokusaiKogyoBus.SuidouTankuMae.28.1
KokusaiKogyoBus.KamitakadaShougakkou.46.1,上高田小学校,1,35.7174872721864,139.67253307485,KokusaiKogyoBus.KamitakadaShougakkou.46.1
KokusaiKogyoBus.AraiKusushiGuchi.49.1,新井薬師口,1,35.7148355965278,139.670136466757,KokusaiKogyoBus.AraiKusushiGuchi.49.1
KokusaiKogyoBus.MinaminagasakiSanChoume.65.2,南長崎三丁目,2,35.7229069569831,139.68642490651,KokusaiKogyoBus.MinaminagasakiSanChoume.65.2
KokusaiKogyoBus.Miyawaki.916.10,宮脇,10,35.8292155593837,139.768560982136,KokusaiKogyoBus.Miyawaki.916.10
NishiTokyoBus.Ozakudai2Chome.8569.27,小作台二丁目,27,35.7806408436987,139.298379859518,NishiTokyoBus.Ozakudai2Chome.8569.27
KokusaiKogyoBus.ChihayaKoukou.32.2,千早高校,2,35.7362311393377,139.684329277454,KokusaiKogyoBus.ChihayaKoukou.32.2
KokusaiKogyoBus.ShidanZakaDoori.624.2,師団坂通り,2,35.783847051477,139.715179767901,KokusaiKogyoBus.ShidanZakaDoori.624.2
NishiTokyoBus.SakaeESIriguchi.8555.27,栄小学校入口（はむらん）,27,35.7710726489719,139.311335335273,NishiTokyoBus.SakaeESIriguchi.8555.27
NishiTokyoBus.HamuraCityWelfareCenter.8570.27,羽村市福祉センター,27,35.7702463779794,139.313025232975,NishiTokyoBus.HamuraCityWelfareCenter.8570.27
KokusaiKogyoBus.IkebukuroEkiNishiguchi.1.6,池袋駅西口,6,35.7304652909138,139.708423602821,KokusaiKogyoBus.IkebukuroEkiNishiguchi.1.6
KokusaiKogyoBus.NishiTakashimadairaEki.338.2,西高島平駅,2,35.7918846249485,139.644996601379,KokusaiKogyoBus.NishiTakashimadairaEki.338.2
KokusaiKogyoBus.MinamiYamanashi.936.10,南山梨,10,35.8245428995537,139.77627861594,KokusaiKogyoBus.MinamiYamanashi.936.10
KokusaiKogyoBus.AkaiDai.1103.2,赤井台,2,35.8304411589318,139.754060210279,KokusaiKogyoBus.AkaiDai.1103.2
KokusaiKogyoBus.SanshainshithiMinami.72.1,サンシャインシティ南,1,35.7279463749104,139.720779427173,KokusaiKogyoBus.SanshainshithiMinami.72.1
NishiTokyoBus.HamuraHealthCenter.8529.27,保健センター,27,35.7692489659998,139.311956756528,NishiTokyoBus.HamuraHealthCenter.8529.27
KokusaiKogyoBus.HizaoriSakashita.219.1,膝折坂下,1,35.7920728399213,139.583458855869,KokusaiKogyoBus.HizaoriSakashita.219.1
KokusaiKogyoBus.SuehiroKousaten.1035.11,末広交差点,11,35.8065500424957,139.732612263481,KokusaiKogyoBus.SuehiroKousaten.1035.11
NishiTokyoBus.MiyamaES.1600.10,美山小学校,10,35.6900843826699,139.248616773239,NishiTokyoBus.MiyamaES.1600.10
NishiTokyoBus.ZempukuJiTempleIriguchi.8518.1,褝福寺入口,1,35.7592080027542,139.306644604495,NishiTokyoBus.ZempukuJiTempleIriguchi.8518.1
KokusaiKogyoBus.AngyouryoukeMinami.4542.10,安行領家南,10,35.842022011831,139.758734906801,KokusaiKogyoBus.AngyouryoukeMinami.4542.10
NishiTokyoBus.Takenosawa.2740.1,竹の沢,1,35.7386108119367,139.086899913637,NishiTokyoBus.Takenosawa.2740.1
NishiTokyoBus.Minedani.6590.10,峰谷,10,35.7947569359383,139.002073817466,NishiTokyoBus.Minedani.6590.10
NishiTokyoBus.Shimoyoke.2750.1,下除毛,1,35.7400239428912,139.083967036584,NishiTokyoBus.Shimoyoke.2750.1
KokusaiKogyoBus.Shimmachihigashi.1313.11,新町東,11,35.8608507230876,139.738420111146,KokusaiKogyoBus.Shimmachihigashi.1313.11
NishiTokyoBus.IkusabataStation.5630.10,軍畑駅入口,10,35.8058740531654,139.207262653701,NishiTokyoBus.IkusabataStation.5630.10
KokusaiKogyoBus.NiKenAriie.1036.2,二軒在家,2,35.8113999251732,139.738865876036,KokusaiKogyoBus.NiKenAriie.1036.2
KokusaiKogyoBus.MonkaMachi.1304.10,門下町,10,35.8450454057227,139.745601133575,KokusaiKogyoBus.MonkaMachi.1304.10
NishiTokyoBus.HigashiNippara.6170.10,東日原,10,35.8418026481837,139.044683945764,NishiTokyoBus.HigashiNippara.6170.10
KokusaiKogyoBus.HayaseKaikan.4384.10,早瀬会館,10,35.803149804806,139.651430060719,KokusaiKogyoBus.HayaseKaikan.4384.10
KokusaiKogyoBus.NakamaruMachi.7.2,中丸町,2,35.7391361022805,139.705145535906,KokusaiKogyoBus.NakamaruMachi.7.2
KokusaiKogyoBus.FujiJinjaIriguchi.15.1,富士神社入口,1,35.7366295777136,139.69411575718,KokusaiKogyoBus.FujiJinjaIriguchi.15.1
KokusaiKogyoBus.HikarigaokaEki.121.10,光が丘駅,10,35.7589614970841,139.629965571511,KokusaiKogyoBus.HikarigaokaEki.121.10
NishiTokyoBus.IsekiPark.850.1,遺跡公園,1,35.674626783047,139.323189069627,NishiTokyoBus.IsekiPark.850.1
KokusaiKogyoBus.WakakiShougakkou.233.1,若木小学校,1,35.7694053533459,139.67612225361,KokusaiKogyoBus.WakakiShougakkou.233.1
KokusaiKogyoBus.SakuraDaiNiChoume.132.2,桜台二丁目,2,35.743431364656,139.66308079052,KokusaiKogyoBus.SakuraDaiNiChoume.132.2
KokusaiKogyoBus.SakuraDaiIchiChoume.133.1,桜台一丁目,1,35.7405128152734,139.661550005303,KokusaiKogyoBus.SakuraDaiIchiChoume.133.1
KokusaiKogyoBus.SakuraDaiIchiChoume.133.2,桜台一丁目,2,35.7415435258307,139.661944895454,KokusaiKogyoBus.SakuraDaiIchiChoume.133.2
KokusaiKogyoBus.SakuradaiEki.134.2,桜台駅,2,35.7385978760157,139.661281008201,KokusaiKogyoBus.SakuradaiEki.134.2
KokusaiKogyoBus.SakuradaiEki.134.3,桜台駅,3,35.736965006705,139.66040224245,KokusaiKogyoBus.SakuradaiEki.134.3
KokusaiKogyoBus.ToyotamakitaYonChoume.135.1,豊玉北四丁目,1,35.7350988547423,139.658816080881,KokusaiKogyoBus.ToyotamakitaYonChoume.135.1
KokusaiKogyoBus.ToyotamakitaYonChoume.135.2,豊玉北四丁目,2,35.7355708244973,139.659474643081,KokusaiKogyoBus.ToyotamakitaYonChoume.135.2
KokusaiKogyoBus.IidukaSanChoume.708.1,飯塚三丁目,1,35.7980597137008,139.709705481524,KokusaiKogyoBus.IidukaSanChoume.708.1
KokusaiKogyoBus.UkimaFunatoEki.373.1,浮間舟渡駅,1,35.7914681783671,139.691829662396,KokusaiKogyoBus.UkimaFunatoEki.373.1
KokusaiKogyoBus.TakashimaDaiIchiChuugakkou.365.1,高島第一中学校,1,35.7904855403734,139.66351830482,KokusaiKogyoBus.TakashimaDaiIchiChuugakkou.365.1
KokusaiKogyoBus.ShimuraKyou.379.2,志村橋,2,35.7902257316905,139.685056199417,KokusaiKogyoBus.ShimuraKyou.379.2
NishiTokyoBus.HamuraCityHall.4630.29,羽村市役所,29,35.7676957902576,139.31146797975,NishiTokyoBus.HamuraCityHall.4630.29
KokusaiKogyoBus.TokumaruHachiChoume.377.2,徳丸八丁目,2,35.7817081308903,139.656585655045,KokusaiKogyoBus.TokumaruHachiChoume.377.2
KokusaiKogyoBus.ChikatetsuKenshaJou.376.2,地下鉄検車場,2,35.7884027350759,139.674441940352,KokusaiKogyoBus.ChikatetsuKenshaJou.376.2
KokusaiKogyoBus.MinamisakaeMachi.216.1,南栄町,1,35.7870444988905,139.597979308731,KokusaiKogyoBus.MinamisakaeMachi.216.1
KokusaiKogyoBus.NishikiDanchi.142.2,錦団地,2,35.7613004773757,139.664216040177,KokusaiKogyoBus.NishikiDanchi.142.2
KokusaiKogyoBus.ToushinMachiIchiChoume.158.1,東新町一丁目,1,35.7579973156322,139.682945052139,KokusaiKogyoBus.ToushinMachiIchiChoume.158.1
NishiTokyoBus.Yokoyamacho3Chome.400.10,横山町３丁目,10,35.6599593949855,139.335198469865,NishiTokyoBus.Yokoyamacho3Chome.400.10
KokusaiKogyoBus.NishikiDanchi.142.12,錦団地,12,35.7611702885924,139.664398321624,KokusaiKogyoBus.NishikiDanchi.142.12
KokusaiKogyoBus.KasugaMachi.146.1,春日町,1,35.754274951009,139.645857422969,KokusaiKogyoBus.KasugaMachi.146.1
KokusaiKogyoBus.NishikiDanchi.142.13,錦団地,13,35.7613004771719,139.664208445336,KokusaiKogyoBus.NishikiDanchi.142.13
KokusaiKogyoBus.Jizoubashi.4673.10,地蔵橋（川口市コミュニティバス）,10,35.840981495869,139.716555371824,KokusaiKogyoBus.Jizoubashi.4673.10
KokusaiKogyoBus.ShibazonoDanchi.842.2,芝園団地,2,35.8306432407387,139.68392835527,KokusaiKogyoBus.ShibazonoDanchi.842.2
KokusaiKogyoBus.BuzouIchiChoume.843.1,文蔵一丁目,1,35.8406808251634,139.671028653751,KokusaiKogyoBus.BuzouIchiChoume.843.1
KokusaiKogyoBus.GoSaRo.720.1,五差路,1,35.8108969113613,139.673141226845,KokusaiKogyoBus.GoSaRo.720.1
KokusaiKogyoBus.BuzouIchiChoume.843.2,文蔵一丁目,2,35.8410095600431,139.670875658627,KokusaiKogyoBus.BuzouIchiChoume.843.2
KokusaiKogyoBus.Jirin.1247.10,慈林,10,35.8361196169963,139.748278135397,KokusaiKogyoBus.Jirin.1247.10
KokusaiKogyoBus.Hara.1174.10,原,10,35.8387129823629,139.760946225124,KokusaiKogyoBus.Hara.1174.10
KokusaiKogyoBus.SaiwaiMachi.11.2,幸町（板橋区）,2,35.7429928464995,139.696072799331,KokusaiKogyoBus.SaiwaiMachi.11.2
KokusaiKogyoBus.Rikkyoudaigaku.75.2,立教大学,2,35.7290460122092,139.702183955176,KokusaiKogyoBus.Rikkyoudaigaku.75.2
KokusaiKogyoBus.IshigamiChuu.1311.2,石神中,2,35.8560497766196,139.736375124256,KokusaiKogyoBus.IshigamiChuu.1311.2
KokusaiKogyoBus.IidukaNiChoume.709.2,飯塚二丁目,2,35.7976149243951,139.711158284173,KokusaiKogyoBus.IidukaNiChoume.709.2
KokusaiKogyoBus.IshigamiChuu.1311.1,石神中,1,35.8571499005027,139.735908539288,KokusaiKogyoBus.IshigamiChuu.1311.1
KokusaiKogyoBus.IritaniMachi.1050.1,入谷町,1,35.8004588106037,139.760359721287,KokusaiKogyoBus.IritaniMachi.1050.1
KokusaiKogyoBus.ChihayaKoukou.32.1,千早高校,1,35.7363342151602,139.684546268764,KokusaiKogyoBus.ChihayaKoukou.32.1
KokusaiKogyoBus.ChihayaYonChoume.31.1,千早四丁目,1,35.738254615451,139.686166062423,KokusaiKogyoBus.ChihayaYonChoume.31.1
KokusaiKogyoBus.SashimaMinami.1319.10,差間南,10,35.8657467938172,139.727442112033,KokusaiKogyoBus.SashimaMinami.1319.10
KokusaiKogyoBus.HeiwadaiEki.104.10,平和台駅,10,35.7577035966597,139.653766769044,KokusaiKogyoBus.HeiwadaiEki.104.10
KokusaiKogyoBus.MonkaMachi.1304.1,門下町,1,35.8450822936065,139.745589197325,KokusaiKogyoBus.MonkaMachi.1304.1
KokusaiKogyoBus.NiizoGuchi.723.1,新曽口,1,35.8121713217258,139.658159809344,KokusaiKogyoBus.NiizoGuchi.723.1
KokusaiKogyoBus.NakanoGoChoume.51.2,中野五丁目,2,35.7097959984605,139.669484598498,KokusaiKogyoBus.NakanoGoChoume.51.2
KokusaiKogyoBus.ItabashiYonChoume.603.1,板橋四丁目,1,35.7507996076269,139.717103685136,KokusaiKogyoBus.ItabashiYonChoume.603.1
KokusaiKogyoBus.Miyanodai.1840.1,宮台,1,35.8084963202212,139.60712588468,KokusaiKogyoBus.Miyanodai.1840.1
KokusaiKogyoBus.Miyanodai.1840.2,宮台,2,35.808781662,139.607150827617,KokusaiKogyoBus.Miyanodai.1840.2
KokusaiKogyoBus.NiizoGuchi.723.2,新曽口,2,35.8123492313499,139.657351494094,KokusaiKogyoBus.NiizoGuchi.723.2
KokusaiKogyoBus.Kuruwa.1305.10,曲輪,10,35.8475224101244,139.748194128605,KokusaiKogyoBus.Kuruwa.1305.10
KokusaiKogyoBus.Tsukuda.1866.2,佃,2,35.8529263223131,139.579060067875,KokusaiKogyoBus.Tsukuda.1866.2
KokusaiKogyoBus.SomeyaMinami.2064.1,染谷南,1,35.907221066929,139.687156305342,KokusaiKogyoBus.SomeyaMinami.2064.1
KokusaiKogyoBus.OujiSanChoume.257.2,王子三丁目,2,35.7582971396449,139.737407648571,KokusaiKogyoBus.OujiSanChoume.257.2
KokusaiKogyoBus.BikuniKyou.191.10,比丘尼橋,10,35.7562809203977,139.601726976496,KokusaiKogyoBus.BikuniKyou.191.10
KokusaiKogyoBus.NerimaKasugaMachiEki.147.1,練馬春日町駅,1,35.7501357192897,139.639974843132,KokusaiKogyoBus.NerimaKasugaMachiEki.147.1
KokusaiKogyoBus.NerimaKougyouKoukouUra.144.1,練馬工業高校裏,1,35.7560653996,139.656500978002,KokusaiKogyoBus.NerimaKougyouKoukouUra.144.1
KokusaiKogyoBus.NerimaKougyouKoukouUra.144.2,練馬工業高校裏,2,35.7563420491966,139.656055041158,KokusaiKogyoBus.NerimaKougyouKoukouUra.144.2
KokusaiKogyoBus.HigashinakaGakkouIriguchi.145.1,東中学校入口（練馬区）,1,35.7564558018336,139.649837031651,KokusaiKogyoBus.HigashinakaGakkouIriguchi.145.1
KokusaiKogyoBus.HigashinakaGakkouIriguchi.145.2,東中学校入口（練馬区）,2,35.7564991980954,139.64977627117,KokusaiKogyoBus.HigashinakaGakkouIriguchi.145.2
KokusaiKogyoBus.NerimaKasugaMachiEki.147.2,練馬春日町駅,2,35.7506564903854,139.639840284933,KokusaiKogyoBus.NerimaKasugaMachiEki.147.2
KokusaiKogyoBus.NoukyouMae.148.2,農協前（練馬区）,2,35.748633137457,139.642591869006,KokusaiKogyoBus.NoukyouMae.148.2
KokusaiKogyoBus.ChihayaYonChoume.31.2,千早四丁目,2,35.7379258724721,139.686019603753,KokusaiKogyoBus.ChihayaYonChoume.31.2
KokusaiKogyoBus.AkabaneEkiNishiguchi.501.4,赤羽駅西口,4,35.7778202999096,139.720040710456,KokusaiKogyoBus.AkabaneEkiNishiguchi.501.4
KokusaiKogyoBus.AkabaneEkiNishiguchi.501.7,赤羽駅西口,7,35.7799250662664,139.718872104623,KokusaiKogyoBus.AkabaneEkiNishiguchi.501.7
KokusaiKogyoBus.AkabaneEkiNishiguchi.501.9,赤羽駅西口,9,35.7802451207619,139.718687645513,KokusaiKogyoBus.AkabaneEkiNishiguchi.501.9
KokusaiKogyoBus.AkabanedaiSakashita.502.1,赤羽台坂下,1,35.7819809910207,139.716998265494,KokusaiKogyoBus.AkabanedaiSakashita.502.1
KokusaiKogyoBus.AkabaToeiJuutaku.505.3,赤羽都営住宅,3,35.7762251742957,139.710628596577,KokusaiKogyoBus.AkabaToeiJuutaku.505.3
SeibuBus.Tokorozawashakenjoumae.110083.1,所沢車検場前,1,35.7998491666667,139.498220277778,SeibuBus.Tokorozawashakenjoumae.110083.1
KokusaiKogyoBus.HongouKyou.933.10,本郷橋,10,35.8178354249254,139.764015389479,KokusaiKogyoBus.HongouKyou.933.10
KokusaiKogyoBus.KagaDanchi.558.2,加賀団地,2,35.7933361685088,139.761733591638,KokusaiKogyoBus.KagaDanchi.558.2
KokusaiKogyoBus.OoyaGuchiNiChoume.27.1,大谷口二丁目,1,35.7433203081882,139.688906510649,KokusaiKogyoBus.OoyaGuchiNiChoume.27.1
KokusaiKogyoBus.OoyaGuchiNiChoume.27.2,大谷口二丁目,2,35.743721747386,139.689229817686,KokusaiKogyoBus.OoyaGuchiNiChoume.27.2
KokusaiKogyoBus.ShiinaMachiEkikitaGuchi.38.1,椎名町駅北口,1,35.7275627334984,139.696385895924,KokusaiKogyoBus.ShiinaMachiEkikitaGuchi.38.1
KokusaiKogyoBus.GekijouDooriChuuou.67.1,劇場通り中央,1,35.7352032879774,139.70961037671,KokusaiKogyoBus.GekijouDooriChuuou.67.1
KokusaiKogyoBus.ShiinaMachiEkikitaGuchi.38.2,椎名町駅北口,2,35.7279120876888,139.696428195939,KokusaiKogyoBus.ShiinaMachiEkikitaGuchi.38.2
KokusaiKogyoBus.WakagiSanChoume.234.1,若木三丁目,1,35.7727632809479,139.676708005586,KokusaiKogyoBus.WakagiSanChoume.234.1
KokusaiKogyoBus.SuidouTankuMae.28.2,水道タンク前,2,35.7456909608084,139.690495906712,KokusaiKogyoBus.SuidouTankuMae.28.2
KokusaiKogyoBus.NagasakiDaiNiToyoshiEnMae.33.2,長崎第二豊寿園前,2,35.7352003950335,139.682677983526,KokusaiKogyoBus.NagasakiDaiNiToyoshiEnMae.33.2
KokusaiKogyoBus.NishiguchiDoori.710.1,西口通り,1,35.7973763988214,139.717211382304,KokusaiKogyoBus.NishiguchiDoori.710.1
KokusaiKogyoBus.MinaminagasakiNiChoume.41.2,南長崎二丁目,2,35.7227855498985,139.69041328825,KokusaiKogyoBus.MinaminagasakiNiChoume.41.2
KokusaiKogyoBus.NagasakiRokuChoume.34.1,長崎六丁目,1,35.7334828706423,139.680713158861,KokusaiKogyoBus.NagasakiRokuChoume.34.1
KokusaiKogyoBus.NishiochiaiIchiChoume.43.2,西落合一丁目,2,35.7233277178043,139.679016664043,KokusaiKogyoBus.NishiochiaiIchiChoume.43.2
KokusaiKogyoBus.MinaminagasakiRokuChoume.35.1,南長崎六丁目,1,35.7312836078521,139.677936790564,KokusaiKogyoBus.MinaminagasakiRokuChoume.35.1
KokusaiKogyoBus.TetsugakuDouHigashi.44.1,哲学堂東,1,35.7236639603588,139.675619586349,KokusaiKogyoBus.TetsugakuDouHigashi.44.1
KokusaiKogyoBus.TetsugakuDouKouenIriguchi.45.1,哲学堂公園入口,1,35.7205968140883,139.675617540106,KokusaiKogyoBus.TetsugakuDouKouenIriguchi.45.1
KokusaiKogyoBus.NishiguchiDoori.710.2,西口通り,2,35.7974306425953,139.717077927895,KokusaiKogyoBus.NishiguchiDoori.710.2
KokusaiKogyoBus.JieitaiMae.174.1,自衛隊前,1,35.7652604178708,139.659852101473,KokusaiKogyoBus.JieitaiMae.174.1
KokusaiKogyoBus.TetsugakuDouKouenIriguchi.45.2,哲学堂公園入口,2,35.7210731067409,139.675645730308,KokusaiKogyoBus.TetsugakuDouKouenIriguchi.45.2
KokusaiKogyoBus.TennouKouen.748.1,天王公園,1,35.8165421402544,139.642014086182,KokusaiKogyoBus.TennouKouen.748.1
KokusaiKogyoBus.KamitakadaShougakkou.46.2,上高田小学校,2,35.7169675764872,139.6723128454,KokusaiKogyoBus.KamitakadaShougakkou.46.2
KokusaiKogyoBus.MinaminagasakiRokuChoume.35.2,南長崎六丁目,2,35.731153418507,139.678098457444,KokusaiKogyoBus.MinaminagasakiRokuChoume.35.2
KokusaiKogyoBus.AraiyakushimaeEkiKitaguchiKoushaJou.47.1,新井薬師前駅北口降車場,1,35.7165845793561,139.671913589171,KokusaiKogyoBus.AraiyakushimaeEkiKitaguchiKoushaJou.47.1
KokusaiKogyoBus.AobadaiKouen.221.1,青葉台公園,1,35.7944924357646,139.589561754843,KokusaiKogyoBus.AobadaiKouen.221.1
KokusaiKogyoBus.AraiyakushimaeEki.48.1,新井薬師前駅,1,35.7155408312631,139.670842758591,KokusaiKogyoBus.AraiyakushimaeEki.48.1
KokusaiKogyoBus.AraiyakushimaeEki.48.2,新井薬師前駅,2,35.7154865849417,139.670881819964,KokusaiKogyoBus.AraiyakushimaeEki.48.2
KokusaiKogyoBus.IkebukuroShako.100.1,池袋車庫,1,35.7311973642242,139.698510134896,KokusaiKogyoBus.IkebukuroShako.100.1
KokusaiKogyoBus.IkebukuroEkiNishiguchi.1.90,池袋駅西口,90,35.7307278584931,139.708807674213,KokusaiKogyoBus.IkebukuroEkiNishiguchi.1.90
KokusaiKogyoBus.IkebukuroEkiNishiguchi.1.98,池袋駅西口,98,35.7306855374459,139.708506052208,KokusaiKogyoBus.IkebukuroEkiNishiguchi.1.98
KokusaiKogyoBus.AraiYakushiUmeAkiraInMae.50.1,新井薬師梅照院前,1,35.7123022079463,139.668777092238,KokusaiKogyoBus.AraiYakushiUmeAkiraInMae.50.1
KokusaiKogyoBus.AraiYakushiUmeAkiraInMae.50.2,新井薬師梅照院前,2,35.7129086821566,139.668352841641,KokusaiKogyoBus.AraiYakushiUmeAkiraInMae.50.2
KokusaiKogyoBus.NakanoGoChoume.51.1,中野五丁目,1,35.7098849842765,139.670235399254,KokusaiKogyoBus.NakanoGoChoume.51.1
KokusaiKogyoBus.NakanoEkiKitaguchi.54.9,中野駅北口,9,35.7075413608924,139.665124165301,KokusaiKogyoBus.NakanoEkiKitaguchi.54.9
KokusaiKogyoBus.TetsugakuDou.61.1,哲学堂,1,35.723148606867,139.675489409853,KokusaiKogyoBus.TetsugakuDou.61.1
KokusaiKogyoBus.TetsugakuDou.61.2,哲学堂,2,35.7229782706251,139.675507861339,KokusaiKogyoBus.TetsugakuDou.61.2
KokusaiKogyoBus.OoyamanishiMachi.29.1,大山西町,1,35.7488949011437,139.693878736654,KokusaiKogyoBus.OoyamanishiMachi.29.1
KokusaiKogyoBus.ShitamachiKyou.751.10,下町橋,10,35.8127101710669,139.644408786052,KokusaiKogyoBus.ShitamachiKyou.751.10
KokusaiKogyoBus.KuritsuTaiikukan.73.1,区立体育館（中野区）,1,35.7093803009847,139.663418506777,KokusaiKogyoBus.KuritsuTaiikukan.73.1
KokusaiKogyoBus.IkebukuroHokenjoHigashi.74.1,池袋保健所東,1,35.7320896766093,139.716595586939,KokusaiKogyoBus.IkebukuroHokenjoHigashi.74.1
KokusaiKogyoBus.NichidaiByouin.30.1,日大病院,1,35.748797201983,139.6918715325,KokusaiKogyoBus.NichidaiByouin.30.1
KokusaiKogyoBus.DaimonTakenokoKouen.281.1,大門竹の子公園,1,35.7840535531344,139.647879702603,KokusaiKogyoBus.DaimonTakenokoKouen.281.1
Toei.Sakakubashi.566.1,坂久橋,1,35.83173,139.268399,Toei.Sakakubashi.566.1
KokusaiKogyoBus.ShidanZakaDoori.624.1,師団坂通り,1,35.7839392424999,139.714082852082,KokusaiKogyoBus.ShidanZakaDoori.624.1
KokusaiKogyoBus.MagamotoHoikuen.848.1,曲本保育園,1,35.8376910040241,139.641582493524,KokusaiKogyoBus.MagamotoHoikuen.848.1
KokusaiKogyoBus.HikawadaiSanChoume.128.1,氷川台三丁目,1,35.7508524632846,139.665277569994,KokusaiKogyoBus.HikawadaiSanChoume.128.1
KokusaiKogyoBus.KawaguchiNishichuuGakkou.706.1,川口西中学校,1,35.8010051736832,139.703315930797,KokusaiKogyoBus.KawaguchiNishichuuGakkou.706.1
KokusaiKogyoBus.ShibaKaIchiChoume.4536.10,芝下一丁目,10,35.8362875866148,139.700671495239,KokusaiKogyoBus.ShibaKaIchiChoume.4536.10
KokusaiKogyoBus.AkabaneEkiHigashiguchi.301.5,赤羽駅東口,5,35.7792633273925,139.721809165098,KokusaiKogyoBus.AkabaneEkiHigashiguchi.301.5
KokusaiKogyoBus.ShimoWarabiKouminkanIriguchi.865.2,下蕨公民館入口,2,35.8171759351869,139.689290858981,KokusaiKogyoBus.ShimoWarabiKouminkanIriguchi.865.2
SeibuBus.Tagaranichoume.20080.1,田柄二丁目,1,35.7666986111111,139.644525833333,SeibuBus.Tagaranichoume.20080.1
KokusaiKogyoBus.NichidaiByouin.30.2,日大病院,2,35.7489816411658,139.691802086497,KokusaiKogyoBus.NichidaiByouin.30.2
KokusaiKogyoBus.NerimasougoubyouinIriguchi.36.1,練馬総合病院入口,1,35.7328610810149,139.676435118244,KokusaiKogyoBus.NerimasougoubyouinIriguchi.36.1
KokusaiKogyoBus.NerimasougoubyouinIriguchi.36.2,練馬総合病院入口,2,35.7330889146315,139.676236558194,KokusaiKogyoBus.NerimasougoubyouinIriguchi.36.2
KokusaiKogyoBus.IidukaNiChoume.709.1,飯塚二丁目,1,35.7972786153711,139.712074018657,KokusaiKogyoBus.IidukaNiChoume.709.1
KokusaiKogyoBus.IkebukuroEkiNishiguchi.1.11,池袋駅西口,11,35.7306877057674,139.708447463341,KokusaiKogyoBus.IkebukuroEkiNishiguchi.1.11
KokusaiKogyoBus.ToukyouKitaIryouSenta-.626.10,東京北医療センター,10,35.784210401689,139.711195716417,KokusaiKogyoBus.ToukyouKitaIryouSenta-.626.10
KokusaiKogyoBus.RenkonKyou.402.2,蓮根橋,2,35.7897210918165,139.679868943401,KokusaiKogyoBus.RenkonKyou.402.2
KokusaiKogyoBus.KomoneGoChoume.267.10,小茂根五丁目,10,35.7522469472074,139.677446619366,KokusaiKogyoBus.KomoneGoChoume.267.10
KokusaiKogyoBus.IkebukuroEkiNishiguchi.1.2,池袋駅西口,2,35.7311238650145,139.708834782654,KokusaiKogyoBus.IkebukuroEkiNishiguchi.1.2
KokusaiKogyoBus.NegishiKyou.826.10,根岸橋,10,35.839074917702,139.664126093812,KokusaiKogyoBus.NegishiKyou.826.10
KokusaiKogyoBus.TakamatsuShougakkou.21.1,高松小学校,1,35.7398085879837,139.69838067482,KokusaiKogyoBus.TakamatsuShougakkou.21.1
KokusaiKogyoBus.IkebukuroEkiNishiguchi.1.1,池袋駅西口,1,35.7311889579531,139.708689393055,KokusaiKogyoBus.IkebukuroEkiNishiguchi.1.1
KokusaiKogyoBus.IkebukuroEkiNishiguchi.1.4,池袋駅西口,4,35.7304381765815,139.708771881659,KokusaiKogyoBus.IkebukuroEkiNishiguchi.1.4
KokusaiKogyoBus.IkebukuroEkiNishiguchi.1.5,池袋駅西口,5,35.730456616579,139.708618899102,KokusaiKogyoBus.IkebukuroEkiNishiguchi.1.5
KokusaiKogyoBus.IkebukuroEkiNishiguchi.1.8,池袋駅西口,8,35.7307224426132,139.709137507559,KokusaiKogyoBus.IkebukuroEkiNishiguchi.1.8
KokusaiKogyoBus.SenkawaEki.25.2,千川駅,2,35.7388427228517,139.688622427415,KokusaiKogyoBus.SenkawaEki.25.2
KokusaiKogyoBus.SuidouTankuUra.12.2,水道タンク裏,2,35.7423255252515,139.693144472389,KokusaiKogyoBus.SuidouTankuUra.12.2
KokusaiKogyoBus.TsujiGotanda.833.10,辻五反田,10,35.8374311984568,139.663223459426,KokusaiKogyoBus.TsujiGotanda.833.10
KokusaiKogyoBus.IkebukuroEkiNishiguchi.1.7,池袋駅西口,7,35.7304717920618,139.708105704183,KokusaiKogyoBus.IkebukuroEkiNishiguchi.1.7
KokusaiKogyoBus.RokuTsuji.832.11,六辻,11,35.8398125607906,139.659626663387,KokusaiKogyoBus.RokuTsuji.832.11
KokusaiKogyoBus.Shimmachi.178.2,新町（練馬区）,2,35.7710427035285,139.641841244929,KokusaiKogyoBus.Shimmachi.178.2
KokusaiKogyoBus.NishikawaguchiEkiNishiguchi.701.3,西川口駅西口,3,35.8153503630539,139.703940296218,KokusaiKogyoBus.NishikawaguchiEkiNishiguchi.701.3
KokusaiKogyoBus.Nankyou.539.2,南橋,2,35.7569733147173,139.73037270877,KokusaiKogyoBus.Nankyou.539.2
KokusaiKogyoBus.IkebukuroFutamataKouban.2.1,池袋二又交番,1,35.7318485418625,139.706302416162,KokusaiKogyoBus.IkebukuroFutamataKouban.2.1
KokusaiKogyoBus.SasameKouen.752.1,笹目公園,1,35.8113810587833,139.642474325459,KokusaiKogyoBus.SasameKouen.752.1
KokusaiKogyoBus.KanamechouEki.4.3,要町駅,3,35.7332554937122,139.697926333962,KokusaiKogyoBus.KanamechouEki.4.3
NishiTokyoBus.KomiyaES.91.10,小宮小学校,10,35.682928,139.368629,NishiTokyoBus.KomiyaES.91.10
KokusaiKogyoBus.KoubaiShougakkou.320.2,紅梅小学校,2,35.7796142198724,139.65797125569,KokusaiKogyoBus.KoubaiShougakkou.320.2
KokusaiKogyoBus.KitanoJinja.407.1,北野神社,1,35.7789220998976,139.660816094106,KokusaiKogyoBus.KitanoJinja.407.1
KokusaiKogyoBus.ShimuraShoubousho.399.2,志村消防署,2,35.7772224903279,139.679538531036,KokusaiKogyoBus.ShimuraShoubousho.399.2
KokusaiKogyoBus.AkabanekitaSanChoume.594.1,赤羽北三丁目,1,35.7797510691026,139.70378658678,KokusaiKogyoBus.AkabanekitaSanChoume.594.1
KokusaiKogyoBus.KirigaokaFunShitsu.599.1,桐ヶ丘一丁目,1,35.7792705723759,139.708805711367,KokusaiKogyoBus.KirigaokaFunShitsu.599.1
KokusaiKogyoBus.Bijogihigashi.740.2,美女木東,2,35.8298220802142,139.648950892606,KokusaiKogyoBus.Bijogihigashi.740.2
KokusaiKogyoBus.Harumachi.707.1,原町,1,35.7992096671973,139.706336580374,KokusaiKogyoBus.Harumachi.707.1
KokusaiKogyoBus.Asamabashi.792.11,浅間橋,11,35.8076875510289,139.66992548424,KokusaiKogyoBus.Asamabashi.792.11
KokusaiKogyoBus.Minamimachi.705.1,南町（川口市）,1,35.8040701212999,139.702260123679,KokusaiKogyoBus.Minamimachi.705.1
KokusaiKogyoBus.ShitamaeKouen.868.1,下前公園,1,35.8084202779228,139.684341547511,KokusaiKogyoBus.ShitamaeKouen.868.1
KokusaiKogyoBus.ShitamaeKouen.868.2,下前公園,2,35.8083335024758,139.685097780188,KokusaiKogyoBus.ShitamaeKouen.868.2
KokusaiKogyoBus.UchikataKyou.880.10,内方橋,10,35.8457607058675,139.717207249026,KokusaiKogyoBus.UchikataKyou.880.10
KokusaiKogyoBus.ItabashiKoukouIriguchi.26.2,板橋高校入口,2,35.7414216282837,139.688085259476,KokusaiKogyoBus.ItabashiKoukouIriguchi.26.2
KokusaiKogyoBus.NakanoKuyakusho.53.1,中野区役所,1,35.7068523854487,139.663861279403,KokusaiKogyoBus.NakanoKuyakusho.53.1
KokusaiKogyoBus.KamiNoNeHashi.581.1,かみのね橋,1,35.7509831189284,139.682488560101,KokusaiKogyoBus.KamiNoNeHashi.581.1
KokusaiKogyoBus.HikarigaokaEki.121.1,光が丘駅,1,35.7589669221405,139.629977506042,KokusaiKogyoBus.HikarigaokaEki.121.1
KokusaiKogyoBus.Midorigaoka.222.1,緑ヶ丘,1,35.7922791210609,139.588725326814,KokusaiKogyoBus.Midorigaoka.222.1
KokusaiKogyoBus.KyouikuKagakuKan.230.2,教育科学館,2,35.7633568475236,139.678929334437,KokusaiKogyoBus.KyouikuKagakuKan.230.2
KokusaiKogyoBus.NishidaiIchiChoume.237.2,西台一丁目,2,35.7774555276197,139.671110417936,KokusaiKogyoBus.NishidaiIchiChoume.237.2
KokusaiKogyoBus.KumanoMachi.8.4,熊野町,4,35.7425070367584,139.705258237356,KokusaiKogyoBus.KumanoMachi.8.4
KokusaiKogyoBus.AsagasumiDaiGoShougakkou.224.1,朝霞第五小学校,1,35.8104137791369,139.579995952869,KokusaiKogyoBus.AsagasumiDaiGoShougakkou.224.1
KokusaiKogyoBus.MiyaNe.1391.11,宮根,11,35.8383423686268,139.696659165941,KokusaiKogyoBus.MiyaNe.1391.11
KokusaiKogyoBus.IkebukuroNiChoume.3.1,池袋二丁目,1,35.7328704500698,139.70212304201,KokusaiKogyoBus.IkebukuroNiChoume.3.1
KokusaiKogyoBus.Minamimachi.705.2,南町（川口市）,2,35.8039073818376,139.702357778231,KokusaiKogyoBus.Minamimachi.705.2
KokusaiKogyoBus.NanseiDai.238.1,南西台,1,35.7731319740421,139.669670827886,KokusaiKogyoBus.NanseiDai.238.1
KokusaiKogyoBus.Minamimachi.705.10,南町（川口市）,10,35.8048219891067,139.702236223707,KokusaiKogyoBus.Minamimachi.705.10
KokusaiKogyoBus.YahataZaka.917.11,八幡坂,11,35.8317489123804,139.768603193271,KokusaiKogyoBus.YahataZaka.917.11
KokusaiKogyoBus.ShimoWarabiKouminkanIriguchi.865.1,下蕨公民館入口,1,35.8162320203897,139.688892710587,KokusaiKogyoBus.ShimoWarabiKouminkanIriguchi.865.1
KokusaiKogyoBus.ChibikkoHirobaIriguchi.866.1,ちびっこ広場入口,1,35.8147510623443,139.688703984573,KokusaiKogyoBus.ChibikkoHirobaIriguchi.866.1
KokusaiKogyoBus.ChibikkoHirobaIriguchi.866.2,ちびっこ広場入口,2,35.814984324715,139.688656236118,KokusaiKogyoBus.ChibikkoHirobaIriguchi.866.2
KokusaiKogyoBus.HommachiYonChoume.869.1,本町四丁目（戸田市）,1,35.8082780795073,139.681725673066,KokusaiKogyoBus.HommachiYonChoume.869.1
KokusaiKogyoBus.HommachiYonChoume.869.2,本町四丁目（戸田市）,2,35.8082943399776,139.681214648113,KokusaiKogyoBus.HommachiYonChoume.869.2
KokusaiKogyoBus.TodakouenEkiIriguchi.870.1,戸田公園駅入口,1,35.8089517469793,139.678572701828,KokusaiKogyoBus.TodakouenEkiIriguchi.870.1
KokusaiKogyoBus.TodakouenEkiHigashiguchi.871.1,戸田公園駅東口,1,35.8082910014563,139.67810184846,KokusaiKogyoBus.TodakouenEkiHigashiguchi.871.1
KokusaiKogyoBus.TodakouenEkiHigashiguchi.871.10,戸田公園駅東口,10,35.8083984052243,139.677878338792,KokusaiKogyoBus.TodakouenEkiHigashiguchi.871.10
KokusaiKogyoBus.ShibaShishoIriguchi.886.1,芝支所入口,1,35.8418877365644,139.687760038665,KokusaiKogyoBus.ShibaShishoIriguchi.886.1
KokusaiKogyoBus.ShimoAkatsuka.177.1,下赤塚（川越街道上）,1,35.7696594653382,139.644434396493,KokusaiKogyoBus.ShimoAkatsuka.177.1
KokusaiKogyoBus.HeiwaDaiYonChoume.123.2,平和台四丁目,2,35.7575681325207,139.659516069248,KokusaiKogyoBus.HeiwaDaiYonChoume.123.2
KokusaiKogyoBus.KanamechouNiChoume.23.2,要町二丁目,2,35.7358863382089,139.692232266483,KokusaiKogyoBus.KanamechouNiChoume.23.2
KokusaiKogyoBus.IkebukuroNiChoume.3.2,池袋二丁目,2,35.7329062873879,139.703391379122,KokusaiKogyoBus.IkebukuroNiChoume.3.2
KokusaiKogyoBus.Minamimachi.705.11,南町（川口市）,11,35.8053015400542,139.702394610957,KokusaiKogyoBus.Minamimachi.705.11
KokusaiKogyoBus.NanseiDai.238.2,南西台,2,35.7733977926818,139.669914937031,KokusaiKogyoBus.NanseiDai.238.2
KokusaiKogyoBus.IkebukuroNiChoume.3.3,池袋二丁目,3,35.7328270573021,139.702313999782,KokusaiKogyoBus.IkebukuroNiChoume.3.3
KokusaiKogyoBus.TagaraGoChoume.264.1,田柄五丁目,1,35.7592599492079,139.633382152906,KokusaiKogyoBus.TagaraGoChoume.264.1
KokusaiKogyoBus.KomoneSanChoume.266.1,小茂根三丁目,1,35.7521818766107,139.678424186572,KokusaiKogyoBus.KomoneSanChoume.266.1
KokusaiKogyoBus.KomoneGoChoume.267.1,小茂根五丁目,1,35.7522577960398,139.677422749427,KokusaiKogyoBus.KomoneGoChoume.267.1
KokusaiKogyoBus.NarimasuNiChoume.276.1,成増二丁目,1,35.7791522603553,139.626040393506,KokusaiKogyoBus.NarimasuNiChoume.276.1
KokusaiKogyoBus.NishiaokiIchiChoume.4578.10,西青木一丁目,10,35.8144381353271,139.711853072606,KokusaiKogyoBus.NishiaokiIchiChoume.4578.10
KokusaiKogyoBus.TakamatsuYouchienNishi.275.1,高松幼稚園西,1,35.7615052723678,139.614073806876,KokusaiKogyoBus.TakamatsuYouchienNishi.275.1
KokusaiKogyoBus.DoshidaJizou.274.1,土支田地蔵,1,35.7620693824153,139.611741083023,KokusaiKogyoBus.DoshidaJizou.274.1
KokusaiKogyoBus.TagaraSanChoume.268.1,田柄三丁目,1,35.7594662147822,139.638064906518,KokusaiKogyoBus.TagaraSanChoume.268.1
KokusaiKogyoBus.SanEnIchiChoumeNishi.277.2,三園一丁目西,2,35.7879732220485,139.638734270841,KokusaiKogyoBus.SanEnIchiChoumeNishi.277.2
KokusaiKogyoBus.KanamechouEki.4.5,要町駅,5,35.7324439817723,139.698995069447,KokusaiKogyoBus.KanamechouEki.4.5
KokusaiKogyoBus.NagasakiRokuChoume.34.2,長崎六丁目,2,35.733387390442,139.680533056473,KokusaiKogyoBus.NagasakiRokuChoume.34.2
KokusaiKogyoBus.KanamechouNiChoume.23.1,要町二丁目,1,35.7352136946126,139.693117635176,KokusaiKogyoBus.KanamechouNiChoume.23.1
KokusaiKogyoBus.KanamechouEki.4.1,要町駅,1,35.7337274888112,139.69952774151,KokusaiKogyoBus.KanamechouEki.4.1
KokusaiKogyoBus.KanamechouEki.4.2,要町駅,2,35.7335897055059,139.699714363183,KokusaiKogyoBus.KanamechouEki.4.2
NishiTokyoBus.Hembori.2890.10,人里,10,35.7127097426881,139.089719205491,NishiTokyoBus.Hembori.2890.10
KokusaiKogyoBus.Hazawa.172.2,羽沢（新桜台駅）,2,35.7416305186872,139.669290188479,KokusaiKogyoBus.Hazawa.172.2
KokusaiKogyoBus.MiharadaiIchiChoume.195.1,三原台一丁目,1,35.7504603307152,139.60741574693,KokusaiKogyoBus.MiharadaiIchiChoume.195.1
KokusaiKogyoBus.Wada.196.1,和田,1,35.7487623949121,139.607665360155,KokusaiKogyoBus.Wada.196.1
KokusaiKogyoBus.KouwaShougakkou.197.2,光和小学校,2,35.7463375431169,139.607866178703,KokusaiKogyoBus.KouwaShougakkou.197.2
KokusaiKogyoBus.ShakujiikouenEkiKitaguchi.199.1,石神井公園駅北口,1,35.7438909528366,139.606591429033,KokusaiKogyoBus.ShakujiikouenEkiKitaguchi.199.1
KokusaiKogyoBus.KitaKuKamiyaMachi.254.2,北区神谷町,2,35.7685498150876,139.734545063198,KokusaiKogyoBus.KitaKuKamiyaMachi.254.2
KokusaiKogyoBus.ShakujiikouenEkiKitaguchi.199.10,石神井公園駅北口,10,35.7442218648397,139.606706423285,KokusaiKogyoBus.ShakujiikouenEkiKitaguchi.199.10
KokusaiKogyoBus.ShakujiiChousha.200.1,石神井庁舎,1,35.7439939229636,139.602863443003,KokusaiKogyoBus.ShakujiiChousha.200.1
KokusaiKogyoBus.ToudaiIzumiIchiChoume.202.1,東大泉一丁目,1,35.748751209301,139.595117598651,KokusaiKogyoBus.ToudaiIzumiIchiChoume.202.1
KokusaiKogyoBus.ToueiSatsueiSho.204.1,東映撮影所,1,35.7530964324338,139.595465701205,KokusaiKogyoBus.ToueiSatsueiSho.204.1
KokusaiKogyoBus.HizaoriDanchiIriguchi.220.2,膝折団地入口,2,35.7937327680896,139.581927886039,KokusaiKogyoBus.HizaoriDanchiIriguchi.220.2
KokusaiKogyoBus.MiharadaiChuugakkou.205.1,三原台中学校,1,35.7550331582562,139.599010243784,KokusaiKogyoBus.MiharadaiChuugakkou.205.1
KokusaiKogyoBus.AsakaKenZeiJimusho.223.2,朝霞県税事務所,2,35.8087255619927,139.578528046985,KokusaiKogyoBus.AsakaKenZeiJimusho.223.2
KokusaiKogyoBus.AsahiMachi.206.1,旭町（練馬区）,1,35.7761036406105,139.629097982542,KokusaiKogyoBus.AsahiMachi.206.1
KokusaiKogyoBus.AsaKasumidaiEki.225.10,朝霞台駅,10,35.814384853888,139.586265875393,KokusaiKogyoBus.AsaKasumidaiEki.225.10
KokusaiKogyoBus.TokiwadaiEki.227.1,ときわ台駅,1,35.7591692342573,139.689480908233,KokusaiKogyoBus.TokiwadaiEki.227.1
KokusaiKogyoBus.TokiwadaiEki.227.2,ときわ台駅,2,35.7591583867656,139.689554687131,KokusaiKogyoBus.TokiwadaiEki.227.2
KokusaiKogyoBus.TokiwadaiYonChoume.231.2,常盤台四丁目,2,35.7657491451983,139.678514776398,KokusaiKogyoBus.TokiwadaiYonChoume.231.2
KokusaiKogyoBus.TamakiHachiKousokuKa.235.1,環八高速下,1,35.7775315958819,139.675651044855,KokusaiKogyoBus.TamakiHachiKousokuKa.235.1
KokusaiKogyoBus.SanEnIchiChoumeChuuou.279.2,三園一丁目中央,2,35.7886296868856,139.641407628247,KokusaiKogyoBus.SanEnIchiChoumeChuuou.279.2
KokusaiKogyoBus.HikarigaokaKoukouKaku.273.1,光丘高校角,1,35.7666644637873,139.62403911476,KokusaiKogyoBus.HikarigaokaKoukouKaku.273.1
KokusaiKogyoBus.TagaraSanChoume.268.2,田柄三丁目,2,35.7596452467985,139.638650787022,KokusaiKogyoBus.TagaraSanChoume.268.2
KokusaiKogyoBus.AkabaneEkiNishiguchi.501.6,赤羽駅西口,6,35.7774275279178,139.719257372715,KokusaiKogyoBus.AkabaneEkiNishiguchi.501.6
KokusaiKogyoBus.RokudouNoTsuji.326.2,六道の辻,2,35.7767440583918,139.640238503162,KokusaiKogyoBus.RokudouNoTsuji.326.2
KokusaiKogyoBus.TakamatsuRokuChoume.295.1,高松六丁目,1,35.7594114579341,139.619064786744,KokusaiKogyoBus.TakamatsuRokuChoume.295.1
KokusaiKogyoBus.RenkonSanChoume.403.2,蓮根三丁目,2,35.7897047434717,139.677109846813,KokusaiKogyoBus.RenkonSanChoume.403.2
NishiTokyoBus.Enoki.1990.10,榎木,10,35.688521,139.287537,NishiTokyoBus.Enoki.1990.10
KokusaiKogyoBus.ShirahataYonChoume.4706.11,白幡四丁目,11,35.8383335972632,139.652911799408,KokusaiKogyoBus.ShirahataYonChoume.4706.11
KokusaiKogyoBus.ShikahamaRokuChoume.555.1,鹿浜六丁目,1,35.7846457255246,139.761179520676,KokusaiKogyoBus.ShikahamaRokuChoume.555.1
KokusaiKogyoBus.NerimaEki.284.1,練馬駅,1,35.7386139542588,139.653974770234,KokusaiKogyoBus.NerimaEki.284.1
KokusaiKogyoBus.AkaWaSanChoume.304.1,赤羽三丁目,1,35.7871453528262,139.717468936483,KokusaiKogyoBus.AkaWaSanChoume.304.1
KokusaiKogyoBus.NerimaEki.284.10,練馬駅,10,35.7382342254875,139.654078943377,KokusaiKogyoBus.NerimaEki.284.10
KokusaiKogyoBus.AkabaneEkiHigashiguchi.301.6,赤羽駅東口,6,35.7792004022284,139.721875351265,KokusaiKogyoBus.AkabaneEkiHigashiguchi.301.6
KokusaiKogyoBus.ShirahataYonChoume.4706.10,白幡四丁目,10,35.8382956219831,139.652832597611,KokusaiKogyoBus.ShirahataYonChoume.4706.10
KokusaiKogyoBus.NerimaEki.284.12,練馬駅,12,35.7386085298132,139.653985620226,KokusaiKogyoBus.NerimaEki.284.12
KokusaiKogyoBus.Inarimae.285.1,稲荷前,1,35.7501619363474,139.606151760453,KokusaiKogyoBus.Inarimae.285.1
KokusaiKogyoBus.AkabaneEkiHigashiguchi.301.0,赤羽駅東口,0,35.7794444730939,139.720303209204,KokusaiKogyoBus.AkabaneEkiHigashiguchi.301.0
KokusaiKogyoBus.AkabaneEkiHigashiguchi.301.1,赤羽駅東口,1,35.7788271601622,139.721124562055,KokusaiKogyoBus.AkabaneEkiHigashiguchi.301.1
KokusaiKogyoBus.AkabaneEkiHigashiguchi.301.2,赤羽駅東口,2,35.7788835761385,139.721076820767,KokusaiKogyoBus.AkabaneEkiHigashiguchi.301.2
KokusaiKogyoBus.AkabaneEkiHigashiguchi.301.3,赤羽駅東口,3,35.7789291434295,139.721058374307,KokusaiKogyoBus.AkabaneEkiHigashiguchi.301.3
KokusaiKogyoBus.AkabaneEkiHigashiguchi.301.4,赤羽駅東口,4,35.7789757954928,139.721033417938,KokusaiKogyoBus.AkabaneEkiHigashiguchi.301.4
KokusaiKogyoBus.SakogiNiChoume.382.1,東坂下二丁目,1,35.7833201098801,139.687571456308,KokusaiKogyoBus.SakogiNiChoume.382.1
KokusaiKogyoBus.AkabanekitaIchiChoume.305.1,赤羽北一丁目,1,35.7862989654043,139.712689645616,KokusaiKogyoBus.AkabanekitaIchiChoume.305.1
KokusaiKogyoBus.AkabaneEkiHigashiguchi.301.8,赤羽駅東口,8,35.7799067173419,139.72241130147,KokusaiKogyoBus.AkabaneEkiHigashiguchi.301.8
KokusaiKogyoBus.AkabaneEkiHigashiguchi.301.9,赤羽駅東口,9,35.7787588504986,139.722686932204,KokusaiKogyoBus.AkabaneEkiHigashiguchi.301.9
KokusaiKogyoBus.Yokomichi.923.11,横道,11,35.8336857818204,139.777451104739,KokusaiKogyoBus.Yokomichi.923.11
KokusaiKogyoBus.TokumaruNanaChoume.319.1,徳丸七丁目,1,35.7804009722894,139.664140404707,KokusaiKogyoBus.TokumaruNanaChoume.319.1
KokusaiKogyoBus.Daitoubunkadaigaku.318.1,大東文化大学,1,35.7808567706251,139.668626767358,KokusaiKogyoBus.Daitoubunkadaigaku.318.1
KokusaiKogyoBus.AzusawaKouen.309.2,小豆沢公園,2,35.7814597297065,139.698898694766,KokusaiKogyoBus.AzusawaKouen.309.2
KokusaiKogyoBus.AzusawaDoori.310.1,小豆沢通り,1,35.7807924009805,139.695693698773,KokusaiKogyoBus.AzusawaDoori.310.1
NishiTokyoBus.SakaeESIriguchi.8555.29,栄小学校入口（はむらん）,29,35.7710726489719,139.311335335273,NishiTokyoBus.SakaeESIriguchi.8555.29
KokusaiKogyoBus.AzusawaDoori.310.2,小豆沢通り,2,35.781063669442,139.696870888185,KokusaiKogyoBus.AzusawaDoori.310.2
KokusaiKogyoBus.ShimuraSakashita.311.1,志村坂下,1,35.7812696147663,139.68962757129,KokusaiKogyoBus.ShimuraSakashita.311.1
KokusaiKogyoBus.ShimuraSakashita.311.3,志村坂下,3,35.7803768030108,139.693343654722,KokusaiKogyoBus.ShimuraSakashita.311.3
KokusaiKogyoBus.AdachiKougyouKoukouMinami.565.1,足立工業高校南,1,35.7860186200304,139.777373837547,KokusaiKogyoBus.AdachiKougyouKoukouMinami.565.1
KokusaiKogyoBus.AkabaShako.522.10,赤羽車庫,10,35.7665365079625,139.707399011109,KokusaiKogyoBus.AkabaShako.522.10
NishiTokyoBus.Kuwanoha.6967.1,桑の葉,1,35.6729332281906,139.284233771701,NishiTokyoBus.Kuwanoha.6967.1
KokusaiKogyoBus.KokuritsuNishigaokaKyougiJouKitamon.524.1,ＨＰＳＣ北門,1,35.7696611431161,139.706910644882,KokusaiKogyoBus.KokuritsuNishigaokaKyougiJouKitamon.524.1
KokusaiKogyoBus.KokuritsuNishigaokaKyougiJouKitamon.524.2,ＨＰＳＣ北門,2,35.7698672887049,139.70711895219,KokusaiKogyoBus.KokuritsuNishigaokaKyougiJouKitamon.524.2
KokusaiKogyoBus.AdachiKougyouKoukouMinami.565.2,足立工業高校南,2,35.786029477541,139.777672205892,KokusaiKogyoBus.AdachiKougyouKoukouMinami.565.2
KokusaiKogyoBus.ItabashiSanNaka.526.1,板橋三中,1,35.7549080292182,139.706905816728,KokusaiKogyoBus.ItabashiSanNaka.526.1
KokusaiKogyoBus.Nankyou.539.1,南橋,1,35.7576785216279,139.730042847111,KokusaiKogyoBus.Nankyou.539.1
Toei.ToyoRokuchome.993.2,東陽六丁目,2,35.675177,139.812173,Toei.ToyoRokuchome.993.2
KokusaiKogyoBus.ChuuouDoori.229.2,中央通り（板橋区常盤台）,2,35.7613877948408,139.683646895436,KokusaiKogyoBus.ChuuouDoori.229.2
KokusaiKogyoBus.NishidaiKousatenMinami.236.1,西台交差点南,1,35.7781120140009,139.674583403717,KokusaiKogyoBus.NishidaiKousatenMinami.236.1
KokusaiKogyoBus.NishitatenoNishi.1395.2,西立野西,2,35.8596096961254,139.744081573057,KokusaiKogyoBus.NishitatenoNishi.1395.2
KokusaiKogyoBus.NishidaiToeiJuutaku.239.2,西台都営住宅,2,35.7729908895834,139.668132335779,KokusaiKogyoBus.NishidaiToeiJuutaku.239.2
KokusaiKogyoBus.KyouikuKagakuKan.230.1,教育科学館,1,35.7630530824393,139.679680151022,KokusaiKogyoBus.KyouikuKagakuKan.230.1
KokusaiKogyoBus.TokiwadaiYonChoume.231.1,常盤台四丁目,1,35.7651253121248,139.678947707566,KokusaiKogyoBus.TokiwadaiYonChoume.231.1
KokusaiKogyoBus.ChuutaiIchiChoume.232.1,中台一丁目,1,35.7669859556347,139.677416729356,KokusaiKogyoBus.ChuutaiIchiChoume.232.1
KokusaiKogyoBus.ChuutaiIchiChoume.232.2,中台一丁目,2,35.766947986063,139.6775501831,KokusaiKogyoBus.ChuutaiIchiChoume.232.2
KokusaiKogyoBus.WakagiSanChoume.234.2,若木三丁目,2,35.7743690296272,139.677701779864,KokusaiKogyoBus.WakagiSanChoume.234.2
KokusaiKogyoBus.IriyaYonChoume.1093.2,入谷四丁目,2,35.8073699979071,139.763069714217,KokusaiKogyoBus.IriyaYonChoume.1093.2
KokusaiKogyoBus.NishiaraiGoChoume.564.1,西新井五丁目,1,35.785551995416,139.773763051695,KokusaiKogyoBus.NishiaraiGoChoume.564.1
KokusaiKogyoBus.NishiaraiGoChoume.564.2,西新井五丁目,2,35.7856225304941,139.774264308391,KokusaiKogyoBus.NishiaraiGoChoume.564.2
KokusaiKogyoBus.HigashiyamaMachi.580.2,東山町,2,35.753554531894,139.685758577907,KokusaiKogyoBus.HigashiyamaMachi.580.2
KokusaiKogyoBus.KuriharaMachi.569.1,栗原町,1,35.7780791356176,139.783324175722,KokusaiKogyoBus.KuriharaMachi.569.1
KokusaiKogyoBus.KuriharaMachi.569.2,栗原町,2,35.7780173071788,139.783827607751,KokusaiKogyoBus.KuriharaMachi.569.2
KokusaiKogyoBus.NishiaraiRikkyou.570.1,西新井陸橋,1,35.7783917343455,139.788294444594,KokusaiKogyoBus.NishiaraiRikkyou.570.1
KokusaiKogyoBus.NakanokitaYuubinKyoku.584.2,中野北郵便局,2,35.7257790207365,139.653732252965,KokusaiKogyoBus.NakanokitaYuubinKyoku.584.2
KokusaiKogyoBus.NokataEkiKitaguchi.585.2,野方駅北口,2,35.7213762997307,139.653558834083,KokusaiKogyoBus.NokataEkiKitaguchi.585.2
KokusaiKogyoBus.NokataEkiIriguchi.586.2,野方駅入口,2,35.7160719932268,139.653601361987,KokusaiKogyoBus.NokataEkiIriguchi.586.2
KokusaiKogyoBus.KawaguchiNiChoume.711.1,川口二丁目,1,35.7983474269851,139.717224362676,KokusaiKogyoBus.KawaguchiNiChoume.711.1
KokusaiKogyoBus.KouhokuRikkyouKa.618.2,江北陸橋下,2,35.7780624826916,139.769261784211,KokusaiKogyoBus.KouhokuRikkyouKa.618.2
KokusaiKogyoBus.DaiGoChuugakkouUra.619.1,第五中学校裏（足立区）,1,35.7782253889036,139.775356095682,KokusaiKogyoBus.DaiGoChuugakkouUra.619.1
KokusaiKogyoBus.AkabanedaiTakadai.625.2,赤羽台高台,2,35.7839988893058,139.713142174317,KokusaiKogyoBus.AkabanedaiTakadai.625.2
KokusaiKogyoBus.NishiaraiDaishi.620.1,西新井大師,1,35.7780356598125,139.780431627699,KokusaiKogyoBus.NishiaraiDaishi.620.1
KokusaiKogyoBus.NishiaraiDaishi.620.2,西新井大師,2,35.7779976909217,139.780590035941,KokusaiKogyoBus.NishiaraiDaishi.620.2
KokusaiKogyoBus.Ha-toairandoIriguchi.629.2,ハートアイランド入口,2,35.7712787180362,139.74422512085,KokusaiKogyoBus.Ha-toairandoIriguchi.629.2
KokusaiKogyoBus.Ha-toairandoKita.630.2,ハートアイランド北,2,35.7710563642571,139.74647103304,KokusaiKogyoBus.Ha-toairandoKita.630.2
KokusaiKogyoBus.SangyouDouroHigashi.627.2,産業道路東（足立区鹿浜）,2,35.7838078953721,139.751862853885,KokusaiKogyoBus.SangyouDouroHigashi.627.2
KokusaiKogyoBus.SasameKouen.752.2,笹目公園,2,35.8114678611162,139.642718441821,KokusaiKogyoBus.SasameKouen.752.2
KokusaiKogyoBus.Shimbori.937.2,新堀（川口市・にいぼり/にいほり）,2,35.8262974662576,139.78395367444,KokusaiKogyoBus.Shimbori.937.2
KokusaiKogyoBus.SuehiroKousaten.1035.10,末広交差点,10,35.8069568765782,139.731826723393,KokusaiKogyoBus.SuehiroKousaten.1035.10
KokusaiKogyoBus.Shimbori.937.10,新堀（川口市・にいぼり/にいほり）,10,35.8260760624043,139.781186991175,KokusaiKogyoBus.Shimbori.937.10
KokusaiKogyoBus.HikawaMachi.939.2,氷川町（草加市）,2,35.8267046479306,139.79605658041,KokusaiKogyoBus.HikawaMachi.939.2
KokusaiKogyoBus.SoukaJinja.940.1,草加神社,1,35.8277886000434,139.799384161928,KokusaiKogyoBus.SoukaJinja.940.1
KokusaiKogyoBus.NishiaokiNiChoume.944.1,西青木二丁目,1,35.8150771359431,139.710615087595,KokusaiKogyoBus.NishiaokiNiChoume.944.1
KokusaiKogyoBus.ShibaMinamiKouminkan.948.4,芝南公民館,4,35.8316093800722,139.703860433291,KokusaiKogyoBus.ShibaMinamiKouminkan.948.4
KokusaiKogyoBus.NishiaokiNiChoume.944.2,西青木二丁目,2,35.8152670353447,139.711864973738,KokusaiKogyoBus.NishiaokiNiChoume.944.2
Toei.ShinagawaSeisokojo.220.1,品川清掃工場前,1,35.611613,139.754067,Toei.ShinagawaSeisokojo.220.1
Toei.FunaboriNakagumi.1378.1,船堀中組,1,35.680243,139.864776,Toei.FunaboriNakagumi.1378.1
KokusaiKogyoBus.AkatsukaShougakkou.325.2,赤塚小学校,2,35.7774004848484,139.641481860583,KokusaiKogyoBus.AkatsukaShougakkou.325.2
KokusaiKogyoBus.AkatsukaKouen.342.2,赤塚公園,2,35.7861618452953,139.656805725332,KokusaiKogyoBus.AkatsukaKouen.342.2
KokusaiKogyoBus.Kuruwa.1305.11,曲輪,11,35.8478880425435,139.748387239696,KokusaiKogyoBus.Kuruwa.1305.11
KokusaiKogyoBus.TakashimadairaEki.344.1,高島平駅,1,35.7896825933558,139.66031439942,KokusaiKogyoBus.TakashimadairaEki.344.1
KokusaiKogyoBus.ShimuraSakashita.311.4,志村坂下,4,35.7803854556769,139.692342220309,KokusaiKogyoBus.ShimuraSakashita.311.4
KokusaiKogyoBus.YotsubaMachi.322.1,四葉町,1,35.7804168849049,139.650672581107,KokusaiKogyoBus.YotsubaMachi.322.1
KokusaiKogyoBus.ShimuraSanChoumeEki.312.1,志村三丁目駅,1,35.7785029043819,139.686099337023,KokusaiKogyoBus.ShimuraSanChoumeEki.312.1
KokusaiKogyoBus.ShimuraSanChoumeEki.312.2,志村三丁目駅,2,35.7790182479587,139.685861706141,KokusaiKogyoBus.ShimuraSanChoumeEki.312.2
Toei.AotoShako.3.1,青戸車庫前,1,35.744788,139.843847,Toei.AotoShako.3.1
Toei.AkadoShogakko.19.1,赤土小学校前,1,35.743067,139.769147,Toei.AkadoShogakko.19.1
Toei.AiikuClinic.1.1,愛育クリニック前,1,35.653697,139.726017,Toei.AiikuClinic.1.1
Toei.AiikuClinic.1.2,愛育クリニック前,2,35.654095,139.726541,Toei.AiikuClinic.1.2
NishiTokyoBus.Ogami.5950.1,大神,1,35.8152294606382,139.144753525352,NishiTokyoBus.Ogami.5950.1
NishiTokyoBus.FussaHospital.8503.17,福生病院,17,35.7472543458295,139.326240194193,NishiTokyoBus.FussaHospital.8503.17
KokusaiKogyoBus.NishidaiIchiChoume.237.1,西台一丁目,1,35.7777539000971,139.671556331539,KokusaiKogyoBus.NishidaiIchiChoume.237.1
KokusaiKogyoBus.NiizoShougakkouIriguchi.722.2,新曽小学校入口,2,35.8119360215636,139.66312358977,KokusaiKogyoBus.NiizoShougakkouIriguchi.722.2
KokusaiKogyoBus.ShimuraIchiChoume.515.1,志村一丁目,1,35.7732195529712,139.698824164807,KokusaiKogyoBus.ShimuraIchiChoume.515.1
KokusaiKogyoBus.KannonKyou.1007.2,観音橋,2,35.8268933368541,139.752406848985,KokusaiKogyoBus.KannonKyou.1007.2
KokusaiKogyoBus.AkabaSato.506.4,赤羽郷,4,35.7750153892729,139.70807026898,KokusaiKogyoBus.AkabaSato.506.4
KokusaiKogyoBus.Angyoukitaya.1117.11,安行北谷,11,35.8383922048717,139.774552938854,KokusaiKogyoBus.Angyoukitaya.1117.11
NishiTokyoBus.NipparaLimestoneCave.6190.10,鍾乳洞,10,35.847999085234,139.037676742381,NishiTokyoBus.NipparaLimestoneCave.6190.10
NishiTokyoBus.OzakuStationIriguchi.4580.27,小作駅入口,27,35.7777342993397,139.303486513696,NishiTokyoBus.OzakuStationIriguchi.4580.27
KokusaiKogyoBus.Hijiribashi.755.10,聖橋,10,35.8093198067806,139.647973073501,KokusaiKogyoBus.Hijiribashi.755.10
KokusaiKogyoBus.OujiGoChoume.255.2,王子五丁目（王子神谷駅）,2,35.7651322634749,139.735753866363,KokusaiKogyoBus.OujiGoChoume.255.2
KokusaiKogyoBus.AkaiIchiChoume.1005.2,赤井一丁目,2,35.8229548819273,139.748829838719,KokusaiKogyoBus.AkaiIchiChoume.1005.2
SeibuBus.Shinhibitabashi.110082.1,新日比田橋,1,35.8001313888889,139.509761111111,SeibuBus.Shinhibitabashi.110082.1
KokusaiKogyoBus.AngyouShisho.1251.2,安行支所,2,35.8404771603441,139.762940341708,KokusaiKogyoBus.AngyouShisho.1251.2
KokusaiKogyoBus.Shouwabashi.1207.4,昭和橋,4,35.8298473280935,139.740525142375,KokusaiKogyoBus.Shouwabashi.1207.4
KokusaiKogyoBus.AkatsukaChousha.324.1,赤塚庁舎,1,35.7789704884362,139.644645590842,KokusaiKogyoBus.AkatsukaChousha.324.1
KokusaiKogyoBus.NishidaiToeiJuutaku.239.1,西台都営住宅,1,35.7729420646542,139.668046624547,KokusaiKogyoBus.NishidaiToeiJuutaku.239.1
KokusaiKogyoBus.NarimasuAtsuoByouin.278.1,成増厚生病院,1,35.7884636654362,139.640494084113,KokusaiKogyoBus.NarimasuAtsuoByouin.278.1
KokusaiKogyoBus.IchiNoKubo.2254.1,一ノ久保,1,35.9125809087157,139.654431006587,KokusaiKogyoBus.IchiNoKubo.2254.1
KokusaiKogyoBus.AkatsukaTakadai.329.3,赤塚高台,3,35.7779808260603,139.637547709579,KokusaiKogyoBus.AkatsukaTakadai.329.3
KokusaiKogyoBus.NishidaiSanChoume.240.1,西台三丁目,1,35.7741625748183,139.665978608477,KokusaiKogyoBus.NishidaiSanChoume.240.1
KokusaiKogyoBus.NishidaiSanChoume.240.2,西台三丁目,2,35.7740215395377,139.666271558048,KokusaiKogyoBus.NishidaiSanChoume.240.2
KokusaiKogyoBus.AokiKyou.1034.11,青木橋,11,35.8075578844761,139.729861805077,KokusaiKogyoBus.AokiKyou.1034.11
KokusaiKogyoBus.OodoIchiChoume.1623.2,大戸一丁目,2,35.8606104295663,139.638500228933,KokusaiKogyoBus.OodoIchiChoume.1623.2
KokusaiKogyoBus.OujiYonChoume.256.1,王子四丁目,1,35.7618937320923,139.737109134215,KokusaiKogyoBus.OujiYonChoume.256.1
KokusaiKogyoBus.BijogiSanChoume.763.1,美女木三丁目,1,35.8254908339545,139.643848420256,KokusaiKogyoBus.BijogiSanChoume.763.1
KokusaiKogyoBus.Marunuma.1846.11,丸沼,11,35.8264999622044,139.60819277393,KokusaiKogyoBus.Marunuma.1846.11
KokusaiKogyoBus.Shinchou.1867.1,新長,1,35.8564295956742,139.578285252351,KokusaiKogyoBus.Shinchou.1867.1
KokusaiKogyoBus.OujiNiChoume.258.1,王子二丁目,1,35.7555630669083,139.737207038401,KokusaiKogyoBus.OujiNiChoume.258.1
KokusaiKogyoBus.Nochi.1865.2,後,2,35.8484975753109,139.579322811652,KokusaiKogyoBus.Nochi.1865.2
KokusaiKogyoBus.TagaraGoChoume.264.2,田柄五丁目,2,35.7589941109374,139.632405684087,KokusaiKogyoBus.TagaraGoChoume.264.2
NishiTokyoBus.Koritsuki.5960.1,古里付,1,35.8159515533577,139.141761240609,NishiTokyoBus.Koritsuki.5960.1
KokusaiKogyoBus.NakaoRikkyou.1712.1,中尾陸橋,1,35.8764084750941,139.683667187362,KokusaiKogyoBus.NakaoRikkyou.1712.1
NishiTokyoBus.NakaNippara.6180.1,中日原,1,35.8410323878453,139.04096567892,NishiTokyoBus.NakaNippara.6180.1
KokusaiKogyoBus.DanchiHigashi.2051.2,団地東（東新井団地）,2,35.9062819324699,139.662836580731,KokusaiKogyoBus.DanchiHigashi.2051.2
KokusaiKogyoBus.ChuuouNanaChoume.783.2,中央七丁目,2,35.818004745257,139.685958860194,KokusaiKogyoBus.ChuuouNanaChoume.783.2
KokusaiKogyoBus.TokumaruNiChoume.242.1,徳丸二丁目,1,35.7757790297641,139.661639718939,KokusaiKogyoBus.TokumaruNiChoume.242.1
KokusaiKogyoBus.KitaasakaEki.1887.2,北朝霞駅,2,35.8160415925852,139.58717501928,KokusaiKogyoBus.KitaasakaEki.1887.2
KokusaiKogyoBus.KouheiByouin.4326.10,公平病院,10,35.8130087436731,139.652305238252,KokusaiKogyoBus.KouheiByouin.4326.10
KokusaiKogyoBus.TokumaruNiChoume.242.2,徳丸二丁目,2,35.7756813833734,139.661597408772,KokusaiKogyoBus.TokumaruNiChoume.242.2
KokusaiKogyoBus.MiyaNoShita.243.1,宮の下,1,35.7756867676197,139.660089290125,KokusaiKogyoBus.MiyaNoShita.243.1
KokusaiKogyoBus.AsahiKankyouSenta-.4510.11,朝日環境センター（川口市コミュニティバス,11,35.8110811243683,139.74531607922,KokusaiKogyoBus.AsahiKankyouSenta-.4510.11
NishiTokyoBus.Kojiya.2280.10,糀谷,10,35.7088092033731,139.241693985953,NishiTokyoBus.Kojiya.2280.10
KokusaiKogyoBus.NishiKoudan.4009.10,西公団,10,35.8391093552277,139.734311101099,KokusaiKogyoBus.NishiKoudan.4009.10
KokusaiKogyoBus.HayaseKouen.4324.10,早瀬公園,10,35.8061082931807,139.645372513053,KokusaiKogyoBus.HayaseKouen.4324.10
KokusaiKogyoBus.WarabiKoukou.4059.10,蕨高校,10,35.8333032949387,139.675142101673,KokusaiKogyoBus.WarabiKoukou.4059.10
SeibuBus.Nakano.100182.3,中野,3,35.8164897222222,139.545679722222,SeibuBus.Nakano.100182.3
KokusaiKogyoBus.ChuuouNanaChoume.783.10,中央七丁目,10,35.8180763520947,139.685970792041,KokusaiKogyoBus.ChuuouNanaChoume.783.10
KokusaiKogyoBus.Guri-nSenta-Nishi.4657.10,グリーンセンター西,10,35.8435617524654,139.725916450934,KokusaiKogyoBus.Guri-nSenta-Nishi.4657.10
KokusaiKogyoBus.AkiraHanaMinami.1554.11,明花南,11,35.8562048953398,139.695034229675,KokusaiKogyoBus.AkiraHanaMinami.1554.11
KokusaiKogyoBus.SomeyaNaka.2065.1,染谷中,1,35.9096458874511,139.685813004879,KokusaiKogyoBus.SomeyaNaka.2065.1
KokusaiKogyoBus.TajimaMinami.813.10,田島南,10,35.8452278980174,139.632879586025,KokusaiKogyoBus.TajimaMinami.813.10
KokusaiKogyoBus.ShinoomiyaBaipasuNishi.4612.10,新大宮バイパス西,10,35.7687211584225,139.650861839812,KokusaiKogyoBus.ShinoomiyaBaipasuNishi.4612.10
KokusaiKogyoBus.Angyoukoyama.1116.11,安行小山,11,35.835716777139,139.776488647239,KokusaiKogyoBus.Angyoukoyama.1116.11
KokusaiKogyoBus.Touemombashi.1629.2,藤右ヱ門橋,2,35.8463413771274,139.685247050613,KokusaiKogyoBus.Touemombashi.1629.2
KokusaiKogyoBus.TsukeshimaKyou.4671.10,附島橋（川口市コミュニティバス）,10,35.8631575335646,139.706054060898,KokusaiKogyoBus.TsukeshimaKyou.4671.10
KokusaiKogyoBus.Dounai.934.1,道内,1,35.8205902437317,139.769123350928,KokusaiKogyoBus.Dounai.934.1
NishiTokyoBus.Nakamura.8875.1,中村,1,35.7274356062652,139.229332210457,NishiTokyoBus.Nakamura.8875.1
NishiTokyoBus.TamoriJinjaShrine.2090.1,田守神社前,1,35.704663,139.254533,NishiTokyoBus.TamoriJinjaShrine.2090.1
KokusaiKogyoBus.NichidaiMae.2014.10,日大前,10,35.9095117829412,139.661465038201,KokusaiKogyoBus.NichidaiMae.2014.10
KokusaiKogyoBus.ShichikenyaKouenIriguchi.139.1,七軒家公園入口,1,35.7637906714006,139.673155067619,KokusaiKogyoBus.ShichikenyaKouenIriguchi.139.1
KokusaiKogyoBus.WarabiShiyakusho.729.2,蕨市役所,2,35.82602993585,139.679862047626,KokusaiKogyoBus.WarabiShiyakusho.729.2
KokusaiKogyoBus.NarimasuAtsuoByouin.278.2,成増厚生病院,2,35.7883443155028,139.64028034842,KokusaiKogyoBus.NarimasuAtsuoByouin.278.2
NishiTokyoBus.Kawaino.1270.10,川井野,10,35.6683109097533,139.202712699239,NishiTokyoBus.Kawaino.1270.10
NishiTokyoBus.FussaPoliceStation.8702.10,福生警察署,10,35.7492820753442,139.319991175354,NishiTokyoBus.FussaPoliceStation.8702.10
NishiTokyoBus.Koiwa.2690.1,小岩,1,35.7318833337458,139.110563813706,NishiTokyoBus.Koiwa.2690.1
KokusaiKogyoBus.Aioibashi.314.2,相生橋,2,35.7788119759876,139.680948937237,KokusaiKogyoBus.Aioibashi.314.2
KokusaiKogyoBus.IritaniMachi.1050.2,入谷町,2,35.8015980120223,139.760610304827,KokusaiKogyoBus.IritaniMachi.1050.2
KokusaiKogyoBus.AraiNakanoDoori.52.2,新井中野通り,2,35.7094942825583,139.665734928864,KokusaiKogyoBus.AraiNakanoDoori.52.2
KokusaiKogyoBus.HousuiRo.303.1,放水路,1,35.786792810439,139.719903639907,KokusaiKogyoBus.HousuiRo.303.1
KokusaiKogyoBus.KanazawaShougakkou.601.1,金沢小学校,1,35.7542659647549,139.715255828496,KokusaiKogyoBus.KanazawaShougakkou.601.1
KokusaiKogyoBus.ShimuraSakagami.355.1,志村坂上,1,35.77682687699,139.694144511638,KokusaiKogyoBus.ShimuraSakagami.355.1
KokusaiKogyoBus.UkimaGoChoume.393.2,浮間五丁目,2,35.7870254471041,139.696585297814,KokusaiKogyoBus.UkimaGoChoume.393.2
NishiTokyoBus.ForestOfTokyoCitizen.6941.0,都民の森,0,35.7372199857616,139.031084890845,NishiTokyoBus.ForestOfTokyoCitizen.6941.0
KokusaiKogyoBus.TotsukaSupo-tsuSenta-.4659.10,戸塚スポーツセンター,10,35.8643976008604,139.745296552797,KokusaiKogyoBus.TotsukaSupo-tsuSenta-.4659.10
KokusaiKogyoBus.AkabaneEkiNishiguchi.501.1,赤羽駅西口,1,35.7776380318248,139.720154640459,KokusaiKogyoBus.AkabaneEkiNishiguchi.501.1
KokusaiKogyoBus.Ubagabashi.534.2,姥ヶ橋,2,35.7631407942365,139.713776645371,KokusaiKogyoBus.Ubagabashi.534.2
KokusaiKogyoBus.ToshimaByouin.529.2,豊島病院,2,35.7533542229788,139.700888595118,KokusaiKogyoBus.ToshimaByouin.529.2
KokusaiKogyoBus.Hommachidoori.540.1,本町通り（北区王子本町）,1,35.7547817679663,139.732117441078,KokusaiKogyoBus.Hommachidoori.540.1
KokusaiKogyoBus.Nimaibashi.721.2,二枚橋,2,35.8114956928119,139.66907036792,KokusaiKogyoBus.Nimaibashi.721.2
KokusaiKogyoBus.KitaTodaEki.737.10,北戸田駅,10,35.8276807029476,139.660427868415,KokusaiKogyoBus.KitaTodaEki.737.10
KokusaiKogyoBus.TennouKouen.748.2,天王公園,2,35.8168003533443,139.641852414122,KokusaiKogyoBus.TennouKouen.748.2
KokusaiKogyoBus.IriyaSanChoume.1094.2,入谷三丁目,2,35.8093120522462,139.763020811388,KokusaiKogyoBus.IriyaSanChoume.1094.2
KokusaiKogyoBus.MinamimotoMachiNiChoume.825.1,南本町二丁目,1,35.848465186506,139.666024423004,KokusaiKogyoBus.MinamimotoMachiNiChoume.825.1
NishiTokyoBus.KamiHonose.6840.1,上保之瀬,1,35.7891453047654,138.93793773564,NishiTokyoBus.KamiHonose.6840.1
KokusaiKogyoBus.KoukaidouIriguchi.805.1,公会堂入口（南浦和）,1,35.8429773903087,139.661063044859,KokusaiKogyoBus.KoukaidouIriguchi.805.1
KokusaiKogyoBus.AsakaKeisatsuSho.218.4,朝霞警察署,4,35.7900224016012,139.587632845906,KokusaiKogyoBus.AsakaKeisatsuSho.218.4
KokusaiKogyoBus.ShirahataSakagami.823.1,白幡坂上,1,35.8477423507372,139.656321501194,KokusaiKogyoBus.ShirahataSakagami.823.1
KokusaiKogyoBus.SeseragiKouenIriguchi.864.10,せせらぎ公園入口,10,35.8181795239777,139.689759528476,KokusaiKogyoBus.SeseragiKouenIriguchi.864.10
KokusaiKogyoBus.ChuuouPu-ruIriguchi.862.2,中央プール入口,2,35.8216188226097,139.690351786616,KokusaiKogyoBus.ChuuouPu-ruIriguchi.862.2
KokusaiKogyoBus.TodaHigashiShougakkou.867.1,戸田東小学校,1,35.8134111421844,139.688319956928,KokusaiKogyoBus.TodaHigashiShougakkou.867.1
KokusaiKogyoBus.AriieShougakkouMinami.878.10,在家小学校南,10,35.8514944895526,139.711183222321,KokusaiKogyoBus.AriieShougakkouMinami.878.10
KokusaiKogyoBus.YaheiSanChoume.1027.1,弥平三丁目,1,35.8030841275033,139.750870402776,KokusaiKogyoBus.YaheiSanChoume.1027.1
KokusaiKogyoBus.KawaguchiRokuChoume.1074.1,川口六丁目,1,35.8038099631422,139.710780460989,KokusaiKogyoBus.KawaguchiRokuChoume.1074.1
KokusaiKogyoBus.RyoukeShieiJuutaku.1067.10,領家市営住宅,10,35.7861318522737,139.751852994872,KokusaiKogyoBus.RyoukeShieiJuutaku.1067.10
KokusaiKogyoBus.AokiKaikanIriguchi.1243.2,青木会館入口,2,35.8122944964996,139.719914540911,KokusaiKogyoBus.AokiKaikanIriguchi.1243.2
KokusaiKogyoBus.AraijukuKousaten.1308.2,新井宿交差点,2,35.8466063757034,139.735617109081,KokusaiKogyoBus.AraijukuKousaten.1308.2
KokusaiKogyoBus.Eiwa.1605.11,栄和,11,35.8578865685888,139.614550553701,KokusaiKogyoBus.Eiwa.1605.11
KokusaiKogyoBus.BaipasuGuchi.1314.2,バイパス口,2,35.8606400911047,139.732772813029,KokusaiKogyoBus.BaipasuGuchi.1314.2
KokusaiKogyoBus.UchiMagi.1847.1,内間木,1,35.82461318991,139.60636032384,KokusaiKogyoBus.UchiMagi.1847.1
NishiTokyoBus.Sakaecho5Chome.220.10,栄町５丁目（日野市）,10,35.6846847820732,139.381542649166,NishiTokyoBus.Sakaecho5Chome.220.10
NishiTokyoBus.NakaNippara.6180.10,中日原,10,35.8411362697467,139.041201765641,NishiTokyoBus.NakaNippara.6180.10
KokusaiKogyoBus.SasaKyou.1841.1,笹橋,1,35.8114896753157,139.606597379746,KokusaiKogyoBus.SasaKyou.1841.1
NishiTokyoBus.HigashiNippara.6170.1,東日原,1,35.8416187757794,139.04450174714,NishiTokyoBus.HigashiNippara.6170.1
KokusaiKogyoBus.ShikiEkiHigashiguchi.1801.1,志木駅東口,1,35.8235610151582,139.574269997045,KokusaiKogyoBus.ShikiEkiHigashiguchi.1801.1
NishiTokyoBus.Imakuma.2290.10,今熊,10,35.711062207786,139.23665957809,NishiTokyoBus.Imakuma.2290.10
KokusaiKogyoBus.Uemachi.1805.2,上町,2,35.831411810638,139.578670346833,KokusaiKogyoBus.Uemachi.1805.2
KokusaiKogyoBus.AsahiDoori.1833.1,旭通り,1,35.7978927134974,139.591547125755,KokusaiKogyoBus.AsahiDoori.1833.1
KokusaiKogyoBus.KatayanagiShougakkou.2018.2,片柳小学校,2,35.9092853034514,139.671652982752,KokusaiKogyoBus.KatayanagiShougakkou.2018.2
KokusaiKogyoBus.Miyamae.2046.1,宮前,1,35.89879469294,139.662102355801,KokusaiKogyoBus.Miyamae.2046.1
KokusaiKogyoBus.NakamaruKa.2039.1,中丸下,1,35.9100485027549,139.649249258897,KokusaiKogyoBus.NakamaruKa.2039.1
KokusaiKogyoBus.A-banMiRai.2093.2,アーバンみらい（春野図書館）,2,35.9586902381098,139.66059396782,KokusaiKogyoBus.A-banMiRai.2093.2
KokusaiKogyoBus.OomiyakouenIriguchi.2126.1,大宮公園入口,1,35.9176731382485,139.635420915465,KokusaiKogyoBus.OomiyakouenIriguchi.2126.1
KokusaiKogyoBus.RyoukeKouban.2198.2,領家交番（浦和区）,2,35.8805120260052,139.653799768864,KokusaiKogyoBus.RyoukeKouban.2198.2
KokusaiKogyoBus.UrawaMisonoEki.2229.3,浦和美園駅,3,35.8943980854841,139.727708935123,KokusaiKogyoBus.UrawaMisonoEki.2229.3
NishiTokyoBus.HinatawadaStation.5560.10,日向和田駅,10,35.7881738313252,139.229299971893,NishiTokyoBus.HinatawadaStation.5560.10
KokusaiKogyoBus.MinamiOotoriDaiJuutaku.2253.1,南鳳台住宅,1,35.9122164263512,139.656653054568,KokusaiKogyoBus.MinamiOotoriDaiJuutaku.2253.1
NishiTokyoBus.MiyanohiraStation.5520.10,宮の平駅,10,35.7876340348638,139.237647081306,NishiTokyoBus.MiyanohiraStation.5520.10
KokusaiKogyoBus.BijogiIchiChoume.4361.10,美女木一丁目,10,35.8297437583263,139.641296381575,KokusaiKogyoBus.BijogiIchiChoume.4361.10
KokusaiKogyoBus.MotogouShougakkou.4505.11,元郷小学校,11,35.8003226556199,139.740433032715,KokusaiKogyoBus.MotogouShougakkou.4505.11
KokusaiKogyoBus.KasugaMachiRokuChoume.4614.12,春日町六丁目,12,35.7535965299673,139.633590697109,KokusaiKogyoBus.KasugaMachiRokuChoume.4614.12
KokusaiKogyoBus.OoyabaShougakkouMinami.4754.10,大谷場小学校南,10,35.8509172608069,139.669508185315,KokusaiKogyoBus.OoyabaShougakkouMinami.4754.10
KokusaiKogyoBus.HigashikawaguchiGoChoume.4661.10,東川口五丁目,10,35.8813271746933,139.747448458459,KokusaiKogyoBus.HigashikawaguchiGoChoume.4661.10
KokusaiKogyoBus.KasugaMachiRokuChoume.4614.13,春日町六丁目,13,35.7537104562987,139.633846747151,KokusaiKogyoBus.KasugaMachiRokuChoume.4614.13
KokusaiKogyoBus.Kashima.4672.10,鹿島（川口市コミュニティバス）,10,35.8444390948404,139.711810625799,KokusaiKogyoBus.Kashima.4672.10
NishiTokyoBus.Kamanuki.8303.8,釜貫,8,35.6347950345359,139.344941041713,NishiTokyoBus.Kamanuki.8303.8
KokusaiKogyoBus.NerimaShougakkou.4615.13,練馬小学校,13,35.7529890295428,139.636203346928,KokusaiKogyoBus.NerimaShougakkou.4615.13
KokusaiKogyoBus.KitamachiNiChoumeHigashi.4607.10,北町二丁目東（練馬区）,10,35.767072390543,139.663976026971,KokusaiKogyoBus.KitamachiNiChoumeHigashi.4607.10
KokusaiKogyoBus.ToubuNerimaEkiIriguchi.4608.10,東武練馬駅入口,10,35.7679348636968,139.661743108835,KokusaiKogyoBus.ToubuNerimaEkiIriguchi.4608.10
KokusaiKogyoBus.KuritsuBijutsukanIriguchi.4833.11,区立美術館入口,11,35.7824379959062,139.645243273162,KokusaiKogyoBus.KuritsuBijutsukanIriguchi.4833.11
KokusaiKogyoBus.KitamachiSanChoumeNishi.4613.10,北町三丁目西（練馬区）,10,35.7685420952736,139.649116118596,KokusaiKogyoBus.KitamachiSanChoumeNishi.4613.10
KokusaiKogyoBus.Nariaga-den.4702.10,ナリアガーデン（さいたま市コミュニティ）,10,35.8411955172892,139.646565651727,KokusaiKogyoBus.Nariaga-den.4702.10
KokusaiKogyoBus.NerimaShougakkou.4615.12,練馬小学校,12,35.7529890249458,139.636031920517,KokusaiKogyoBus.NerimaShougakkou.4615.12
KokusaiKogyoBus.SuehiroNiChoume.4670.11,末広二丁目,11,35.8034374414625,139.736799317264,KokusaiKogyoBus.SuehiroNiChoume.4670.11
KokusaiKogyoBus.KuritsuBijutsukanIriguchi.4833.10,区立美術館入口,10,35.7829880553967,139.644916672771,KokusaiKogyoBus.KuritsuBijutsukanIriguchi.4833.10
NishiTokyoBus.Tanoue.8705.1,田ノ上,1,35.7612288554882,139.304227212204,NishiTokyoBus.Tanoue.8705.1
KokusaiKogyoBus.OwadaMachiIchiChoumeChuuou.4744.10,大和田町一丁目中央,10,35.9252714734588,139.652173737621,KokusaiKogyoBus.OwadaMachiIchiChoumeChuuou.4744.10
KokusaiKogyoBus.KasugaMachiIchiChoumeNishi.4619.12,春日町一丁目西,12,35.7490184013266,139.64660301454,KokusaiKogyoBus.KasugaMachiIchiChoumeNishi.4619.12
KokusaiKogyoBus.OoyaNakadooriNishi.4747.10,大谷中通り西,10,35.9266463886128,139.662835751688,KokusaiKogyoBus.OoyaNakadooriNishi.4747.10
NishiTokyoBus.Totohara.2320.1,留原,1,35.723293,139.232099,NishiTokyoBus.Totohara.2320.1
NishiTokyoBus.Kobayashizaka.2330.1,小林坂,1,35.7248731397797,139.231462429316,NishiTokyoBus.Kobayashizaka.2330.1
NishiTokyoBus.Kazuma.3010.1,数馬,1,35.7264069924911,139.047951210238,NishiTokyoBus.Kazuma.3010.1
NishiTokyoBus.Hanekami4Chome.8563.1,羽加美四丁目,1,35.7631463772424,139.301311810474,NishiTokyoBus.Hanekami4Chome.8563.1
KokusaiKogyoBus.ToneriDanchiHigashi.4836.1,舎人団地東,1,35.8127567782468,139.763702037293,KokusaiKogyoBus.ToneriDanchiHigashi.4836.1
NishiTokyoBus.NishiES.8564.1,西小学校（羽村市）,1,35.7651847542184,139.300389570983,NishiTokyoBus.NishiES.8564.1
KokusaiKogyoBus.EnshoujiDaiIchiKouenIriguchi.4707.1,円正寺第一公園入口,1,35.8494911928066,139.693198720878,KokusaiKogyoBus.EnshoujiDaiIchiKouenIriguchi.4707.1
KokusaiKogyoBus.KasugaMachiToshokan.4616.12,春日町図書館,12,35.7521645245897,139.638253987276,KokusaiKogyoBus.KasugaMachiToshokan.4616.12
KokusaiKogyoBus.RyuusuiPu-ru.4658.10,流水プール,10,35.8431592506114,139.726419896746,KokusaiKogyoBus.RyuusuiPu-ru.4658.10
KokusaiKogyoBus.ToneriDanchiHigashi.4836.2,舎人団地東,2,35.8127350911995,139.764143623957,KokusaiKogyoBus.ToneriDanchiHigashi.4836.2
KokusaiKogyoBus.AkabaSato.506.2,赤羽郷,2,35.7751510111278,139.708198290816,KokusaiKogyoBus.AkabaSato.506.2
KokusaiKogyoBus.EnshoujiDaiIchiKouenIriguchi.4707.2,円正寺第一公園入口,2,35.8494423715562,139.693249716791,KokusaiKogyoBus.EnshoujiDaiIchiKouenIriguchi.4707.2
KokusaiKogyoBus.KasugaMachiToshokan.4616.13,春日町図書館,13,35.7521428334706,139.638545847043,KokusaiKogyoBus.KasugaMachiToshokan.4616.13
KokusaiKogyoBus.NerimaKasugaMachiEkihigashi.4617.12,練馬春日町駅東,12,35.7508843843111,139.641890882824,KokusaiKogyoBus.NerimaKasugaMachiEkihigashi.4617.12
KokusaiKogyoBus.TotsukaDanchi.4665.11,戸塚団地,11,35.8641333011521,139.761143741762,KokusaiKogyoBus.TotsukaDanchi.4665.11
KokusaiKogyoBus.EnshoujiDaiIchiKouenIriguchi.4707.10,円正寺第一公園入口,10,35.8494944477065,139.6932008907,KokusaiKogyoBus.EnshoujiDaiIchiKouenIriguchi.4707.10
NishiTokyoBus.HigashiNarahara.1720.B,東楢原,B,35.6755667844821,139.313124584412,NishiTokyoBus.HigashiNarahara.1720.B
KokusaiKogyoBus.Nakai.1210.11,中居,11,35.8174635932137,139.735069294288,KokusaiKogyoBus.Nakai.1210.11
KokusaiKogyoBus.NiKenAriie.1036.1,二軒在家,1,35.8105970934063,139.739950885945,KokusaiKogyoBus.NiKenAriie.1036.1
NishiTokyoBus.HigashiNarahara.1720.A,東楢原,A,35.6755001277251,139.31328374093,NishiTokyoBus.HigashiNarahara.1720.A
KokusaiKogyoBus.IkebukuroShougakkou.68.2,池袋小学校,2,35.737541359701,139.709987854383,KokusaiKogyoBus.IkebukuroShougakkou.68.2
KokusaiKogyoBus.ToshimaKuyakusho.70.2,豊島区役所,2,35.7263666334596,139.718618215988,KokusaiKogyoBus.ToshimaKuyakusho.70.2
KokusaiKogyoBus.MusashinoByouin.170.1,武蔵野病院,1,35.7460301500701,139.67562302356,KokusaiKogyoBus.MusashinoByouin.170.1
KokusaiKogyoBus.TsukeshimaKyou.1355.2,附島橋,2,35.8631022025743,139.706102887123,KokusaiKogyoBus.TsukeshimaKyou.1355.2
KokusaiKogyoBus.IkebukuroFutamataKouban.2.2,池袋二又交番,2,35.7322792426052,139.705432246905,KokusaiKogyoBus.IkebukuroFutamataKouban.2.2
KokusaiKogyoBus.Wada.196.2,和田,2,35.7488057919893,139.607634979043,KokusaiKogyoBus.Wada.196.2
KokusaiKogyoBus.IkebukuroFutamataKouban.2.3,池袋二又交番,3,35.7318539664246,139.706295906079,KokusaiKogyoBus.IkebukuroFutamataKouban.2.3
KokusaiKogyoBus.DaiSanDanchiIriguchi.566.1,第三団地入口,1,35.786197732266,139.780934726113,KokusaiKogyoBus.DaiSanDanchiIriguchi.566.1
KokusaiKogyoBus.NishiaraiSanChoume.567.1,西新井三丁目,1,35.7862140581834,139.78285405048,KokusaiKogyoBus.NishiaraiSanChoume.567.1
KokusaiKogyoBus.NishiaraiSanChoume.567.2,西新井三丁目,2,35.7861999635433,139.783213178573,KokusaiKogyoBus.NishiaraiSanChoume.567.2
KokusaiKogyoBus.NegishiKyou.826.2,根岸橋,2,35.8390727477201,139.664122838969,KokusaiKogyoBus.NegishiKyou.826.2
KokusaiKogyoBus.SaiwaiMachi.11.1,幸町（板橋区）,1,35.7430037048296,139.696402632011,KokusaiKogyoBus.SaiwaiMachi.11.1
KokusaiKogyoBus.KenkouPurazaToShima.71.2,健康プラザとしま,2,35.7351600486081,139.715512655455,KokusaiKogyoBus.KenkouPurazaToShima.71.2
KokusaiKogyoBus.KanamechouEki.4.4,要町駅,4,35.7334594575254,139.697691970613,KokusaiKogyoBus.KanamechouEki.4.4
KokusaiKogyoBus.MinamimachiJuutaku.10.1,南町住宅（板橋区）,1,35.7431719605023,139.699710721198,KokusaiKogyoBus.MinamimachiJuutaku.10.1
KokusaiKogyoBus.TakamatsuYuubinKyoku.5.1,高松郵便局,1,35.7368522121521,139.702318177122,KokusaiKogyoBus.TakamatsuYuubinKyoku.5.1
KokusaiKogyoBus.TakamatsuYuubinKyoku.5.2,高松郵便局,2,35.7351422954256,139.700840506998,KokusaiKogyoBus.TakamatsuYuubinKyoku.5.2
KokusaiKogyoBus.OoyamahigashiMachi.56.1,大山東町,1,35.7488377810669,139.708106047101,KokusaiKogyoBus.OoyamahigashiMachi.56.1
KokusaiKogyoBus.NakamaruMachiSakashita.9.1,中丸町坂下,1,35.7432317125897,139.702688981659,KokusaiKogyoBus.NakamaruMachiSakashita.9.1
KokusaiKogyoBus.MinamimachiKoushinDoori.6.1,南町庚申通り,1,35.738275704436,139.703857702518,KokusaiKogyoBus.MinamimachiKoushinDoori.6.1
KokusaiKogyoBus.NerimaHikarigaokaByouin.119.5,練馬光が丘病院,5,35.7622054953452,139.63018569096,KokusaiKogyoBus.NerimaHikarigaokaByouin.119.5
KokusaiKogyoBus.SomeyaNaka.2065.2,染谷中,2,35.9097663129799,139.685679547785,KokusaiKogyoBus.SomeyaNaka.2065.2
KokusaiKogyoBus.NakamaruMachi.7.1,中丸町,1,35.7391089678446,139.70474518035,KokusaiKogyoBus.NakamaruMachi.7.1
KokusaiKogyoBus.KumanoMachi.8.2,熊野町,2,35.740511850269,139.706438773356,KokusaiKogyoBus.KumanoMachi.8.2
NishiTokyoBus.HamuraCityHall.4630.27,羽村市役所,27,35.7676957902576,139.31146797975,NishiTokyoBus.HamuraCityHall.4630.27
KokusaiKogyoBus.NerimaKitamachiShako.101.99,練馬北町車庫,99,35.7635940529614,139.664104194847,KokusaiKogyoBus.NerimaKitamachiShako.101.99
KokusaiKogyoBus.SenkawaIchiChoume.14.1,千川一丁目,1,35.7386529950098,139.693760887865,KokusaiKogyoBus.SenkawaIchiChoume.14.1
KokusaiKogyoBus.SenkawaIchiChoume.14.2,千川一丁目,2,35.7383492136826,139.693907372078,KokusaiKogyoBus.SenkawaIchiChoume.14.2
KokusaiKogyoBus.KumanoMachi.8.3,熊野町,3,35.742372503053,139.705249562973,KokusaiKogyoBus.KumanoMachi.8.3
KokusaiKogyoBus.ItabashiDaiGoShougakkou.19.1,板橋第五小学校,1,35.7422607222374,139.704086471746,KokusaiKogyoBus.ItabashiDaiGoShougakkou.19.1
KokusaiKogyoBus.KanamechouSanChoume.24.1,要町三丁目,1,35.7370797396718,139.690718674869,KokusaiKogyoBus.KanamechouSanChoume.24.1
KokusaiKogyoBus.SanKenTera.193.10,三軒寺,10,35.7550387777648,139.606279591127,KokusaiKogyoBus.SanKenTera.193.10
KokusaiKogyoBus.GekijouDooriChuuou.67.2,劇場通り中央,2,35.7340803607448,139.709360877272,KokusaiKogyoBus.GekijouDooriChuuou.67.2
NishiTokyoBus.FujimiPark.8531.28,富士見公園,28,35.7659677073274,139.315221636474,NishiTokyoBus.FujimiPark.8531.28
KokusaiKogyoBus.SenkawaNiChoume.13.1,千川二丁目,1,35.7411266672852,139.693474353932,KokusaiKogyoBus.SenkawaNiChoume.13.1
KokusaiKogyoBus.Shimmachi.178.1,新町（練馬区）,1,35.7709450582744,139.641841248873,KokusaiKogyoBus.Shimmachi.178.1
KokusaiKogyoBus.SenkawaNiChoume.13.2,千川二丁目,2,35.7408934042455,139.693498232856,KokusaiKogyoBus.SenkawaNiChoume.13.2
KokusaiKogyoBus.MinamimachiNakadoori.20.1,南町仲通り,1,35.7399388280185,139.700106868554,KokusaiKogyoBus.MinamimachiNakadoori.20.1
KokusaiKogyoBus.TakamatsuNiChoume.22.1,高松二丁目,1,35.7396783395905,139.696343092584,KokusaiKogyoBus.TakamatsuNiChoume.22.1
KokusaiKogyoBus.FujiJinjaIriguchi.15.2,富士神社入口,2,35.7364614123293,139.694170012839,KokusaiKogyoBus.FujiJinjaIriguchi.15.2
KokusaiKogyoBus.SenkawaEki.25.1,千川駅,1,35.7388318690385,139.688460766227,KokusaiKogyoBus.SenkawaEki.25.1
NishiTokyoBus.MagomeMatsuki.1595.10,馬込松木,10,35.6885440395292,139.251345228682,NishiTokyoBus.MagomeMatsuki.1595.10
NishiTokyoBus.ShimoKawaino.1260.10,下川井野,10,35.6699502495301,139.206758954382,NishiTokyoBus.ShimoKawaino.1260.10
KokusaiKogyoBus.YouShougakkou.16.1,要小学校,1,35.7339302551258,139.695101025633,KokusaiKogyoBus.YouShougakkou.16.1
KokusaiKogyoBus.KanaiKubo.55.1,金井窪,1,35.7441790141023,139.707993397751,KokusaiKogyoBus.KanaiKubo.55.1
KokusaiKogyoBus.YouShougakkou.16.2,要小学校,2,35.7340712992734,139.695137909169,KokusaiKogyoBus.YouShougakkou.16.2
KokusaiKogyoBus.Minamimachi.18.2,南町（板橋区）,2,35.7403782876097,139.702188922376,KokusaiKogyoBus.Minamimachi.18.2
KokusaiKogyoBus.KanamechouSanChoume.24.2,要町三丁目,2,35.7376677655853,139.690139273212,KokusaiKogyoBus.KanamechouSanChoume.24.2
KokusaiKogyoBus.NichidaiByouin.30.10,日大病院,10,35.7488894144074,139.69156990507,KokusaiKogyoBus.NichidaiByouin.30.10
KokusaiKogyoBus.KanaiKubo.55.2,金井窪,2,35.745108824624,139.708389376915,KokusaiKogyoBus.KanaiKubo.55.2
KokusaiKogyoBus.IkebukuroShougakkou.68.1,池袋小学校,1,35.737823452078,139.710213518282,KokusaiKogyoBus.IkebukuroShougakkou.68.1
KokusaiKogyoBus.NerimaKitamachiShako.101.4,練馬北町車庫,4,35.7645249764174,139.665545007093,KokusaiKogyoBus.NerimaKitamachiShako.101.4
KokusaiKogyoBus.NerimaKitamachiShako.101.3,練馬北町車庫,3,35.7643274441314,139.662867291088,KokusaiKogyoBus.NerimaKitamachiShako.101.3
KokusaiKogyoBus.IkebukuroEkiHigashiguchi.168.9,池袋駅東口,9,35.7307876738647,139.71414250564,KokusaiKogyoBus.IkebukuroEkiHigashiguchi.168.9
KokusaiKogyoBus.ShimoAtamaKyou.160.2,下頭橋,2,35.753511259077,139.690416387385,KokusaiKogyoBus.ShimoAtamaKyou.160.2
KokusaiKogyoBus.OoyamahigashiMachi.56.2,大山東町,2,35.7487401457737,139.708477113308,KokusaiKogyoBus.OoyamahigashiMachi.56.2
KokusaiKogyoBus.YamatoMachi.60.3,大和町（板橋本町駅）,3,35.7620177333504,139.708552524832,KokusaiKogyoBus.YamatoMachi.60.3
KokusaiKogyoBus.ItabashiKuyakusho.57.1,板橋区役所,1,35.7514904774181,139.708109194797,KokusaiKogyoBus.ItabashiKuyakusho.57.1
KokusaiKogyoBus.AsahiMachiMinamiChikuKuminKan.118.1,旭町南地区区民館,1,35.7645976693625,139.625162149655,KokusaiKogyoBus.AsahiMachiMinamiChikuKuminKan.118.1
KokusaiKogyoBus.ItabashiKuyakusho.57.2,板橋区役所,2,35.7508753211052,139.708437967809,KokusaiKogyoBus.ItabashiKuyakusho.57.2
KokusaiKogyoBus.Nakajuku.58.1,仲宿,1,35.75504909304,139.707675059974,KokusaiKogyoBus.Nakajuku.58.1
KokusaiKogyoBus.OujiNiChoume.258.2,王子二丁目,2,35.7555305207923,139.737292752932,KokusaiKogyoBus.OujiNiChoume.258.2
KokusaiKogyoBus.Nakajuku.58.2,仲宿,2,35.7547192838867,139.708227326786,KokusaiKogyoBus.Nakajuku.58.2
KokusaiKogyoBus.Toyotamanaka.583.1,豊玉中,1,35.7294624910136,139.656493371756,KokusaiKogyoBus.Toyotamanaka.583.1
KokusaiKogyoBus.Kamijuku.59.2,上宿,2,35.7581010307154,139.70696102146,KokusaiKogyoBus.Kamijuku.59.2
KokusaiKogyoBus.TakinogawaJuutaku.610.1,滝野川住宅,1,35.750805376336,139.729902078114,KokusaiKogyoBus.TakinogawaJuutaku.610.1
NishiTokyoBus.TenjikuSportsPark.8556.29,天竺運動公園,29,35.7666099978376,139.307161442957,NishiTokyoBus.TenjikuSportsPark.8556.29
KokusaiKogyoBus.Kasugano.149.1,春日野,1,35.7481558177899,139.644722783685,KokusaiKogyoBus.Kasugano.149.1
KokusaiKogyoBus.HikarigaokaIma.120.2,光が丘ＩＭＡ,2,35.758353893878,139.6287449966,KokusaiKogyoBus.HikarigaokaIma.120.2
KokusaiKogyoBus.NishiSupo-tsuSenta-Iriguchi.4576.10,西スポーツセンター入口,10,35.8020967908719,139.709273496946,KokusaiKogyoBus.NishiSupo-tsuSenta-Iriguchi.4576.10
KokusaiKogyoBus.NerimaHikarigaokaByouin.119.10,練馬光が丘病院,10,35.761896288311,139.630295286146,KokusaiKogyoBus.NerimaHikarigaokaByouin.119.10
KokusaiKogyoBus.IkebukuroShako.100.3,池袋車庫,3,35.7310834353132,139.698158606825,KokusaiKogyoBus.IkebukuroShako.100.3
KokusaiKogyoBus.YamatoMachi.60.1,大和町（板橋本町駅）,1,35.7603793825624,139.705563478488,KokusaiKogyoBus.YamatoMachi.60.1
KokusaiKogyoBus.IkebukuroShako.100.10,池袋車庫,10,35.7310801794808,139.698121717725,KokusaiKogyoBus.IkebukuroShako.100.10
KokusaiKogyoBus.YamatoMachi.60.2,大和町（板橋本町駅）,2,35.7625112955184,139.705245493899,KokusaiKogyoBus.YamatoMachi.60.2
KokusaiKogyoBus.YamatoMachi.60.4,大和町（板橋本町駅）,4,35.7620774018964,139.708420155181,KokusaiKogyoBus.YamatoMachi.60.4
KokusaiKogyoBus.KagaNiChoume.66.1,加賀二丁目（板橋区）,1,35.7566875996501,139.716462225391,KokusaiKogyoBus.KagaNiChoume.66.1
KokusaiKogyoBus.IkebukuroShako.100.2,池袋車庫,2,35.7311018800884,139.69818356056,KokusaiKogyoBus.IkebukuroShako.100.2
KokusaiKogyoBus.NerimaKitamachiShako.101.1,練馬北町車庫,1,35.7636059877602,139.66411829907,KokusaiKogyoBus.NerimaKitamachiShako.101.1
KokusaiKogyoBus.NerimaKitamachiShako.101.2,練馬北町車庫,2,35.7636657091398,139.665954078258,KokusaiKogyoBus.NerimaKitamachiShako.101.2
KokusaiKogyoBus.NerimaKitamachiShako.101.5,練馬北町車庫,5,35.7642244290079,139.664911392491,KokusaiKogyoBus.NerimaKitamachiShako.101.5
KokusaiKogyoBus.NerimaHikarigaokaByouin.119.1,練馬光が丘病院,1,35.7622000696195,139.630148801952,KokusaiKogyoBus.NerimaHikarigaokaByouin.119.1
KokusaiKogyoBus.HikarigaokaIma.120.3,光が丘ＩＭＡ,3,35.7586197069503,139.6287818751,KokusaiKogyoBus.HikarigaokaIma.120.3
KokusaiKogyoBus.HeiwadaiEki.104.4,平和台駅,4,35.7578609109028,139.65365067012,KokusaiKogyoBus.HeiwadaiEki.104.4
KokusaiKogyoBus.HeiwadaiEki.104.5,平和台駅,5,35.7578608822574,139.652583052458,KokusaiKogyoBus.HeiwadaiEki.104.5
KokusaiKogyoBus.Choumoto.179.2,帳元,2,35.7734619792249,139.636000714567,KokusaiKogyoBus.Choumoto.179.2
KokusaiKogyoBus.NerimaKitamachiShako.101.10,練馬北町車庫,10,35.7635897134343,139.664113959818,KokusaiKogyoBus.NerimaKitamachiShako.101.10
KokusaiKogyoBus.NerimaKitamachiShako.101.12,練馬北町車庫,12,35.763595137763,139.664098769917,KokusaiKogyoBus.NerimaKitamachiShako.101.12
KokusaiKogyoBus.HeiwaDaiNiChoume.102.1,平和台二丁目,1,35.761701802546,139.66029166105,KokusaiKogyoBus.HeiwaDaiNiChoume.102.1
KokusaiKogyoBus.HeiwaDaiNiChoume.102.2,平和台二丁目,2,35.7617397668491,139.659961826417,KokusaiKogyoBus.HeiwaDaiNiChoume.102.2
KokusaiKogyoBus.HeiwaDaiYuubinKyoku.103.1,平和台郵便局,1,35.7593744623384,139.655512430043,KokusaiKogyoBus.HeiwaDaiYuubinKyoku.103.1
KokusaiKogyoBus.KitamachiRokuChoume.105.1,北町六丁目（練馬区）,1,35.7594123267585,139.651460038304,KokusaiKogyoBus.KitamachiRokuChoume.105.1
KokusaiKogyoBus.HeiwaDaiYuubinKyoku.103.2,平和台郵便局,2,35.7597433547545,139.655897582086,KokusaiKogyoBus.HeiwaDaiYuubinKyoku.103.2
KokusaiKogyoBus.HeiwaDaiYonChoume.123.3,平和台四丁目,3,35.75786653187,139.660963416924,KokusaiKogyoBus.HeiwaDaiYonChoume.123.3
KokusaiKogyoBus.HeiwadaiEki.104.1,平和台駅,1,35.7585335490857,139.65256458068,KokusaiKogyoBus.HeiwadaiEki.104.1
KokusaiKogyoBus.Toyotamakita.173.2,豊玉北,2,35.7365040067346,139.664228976108,KokusaiKogyoBus.Toyotamakita.173.2
KokusaiKogyoBus.HikarigaokaNiChoume.111.13,光が丘二丁目,13,35.7579416962473,139.631815498924,KokusaiKogyoBus.HikarigaokaNiChoume.111.13
KokusaiKogyoBus.HeiwadaiEki.104.2,平和台駅,2,35.7589230900553,139.654237599944,KokusaiKogyoBus.HeiwadaiEki.104.2
KokusaiKogyoBus.HeiwadaiEki.104.3,平和台駅,3,35.7577035963394,139.653754834294,KokusaiKogyoBus.HeiwadaiEki.104.3
KokusaiKogyoBus.KitamachiRokuChoume.105.2,北町六丁目（練馬区）,2,35.7594665750838,139.651495840364,KokusaiKogyoBus.KitamachiRokuChoume.105.2
KokusaiKogyoBus.HikarigaokaNiChoume.111.1,光が丘二丁目,1,35.7579742439674,139.631789458156,KokusaiKogyoBus.HikarigaokaNiChoume.111.1
KokusaiKogyoBus.KotakeMachiNiChoume.171.1,小竹町二丁目,1,35.743350230578,139.671912509276,KokusaiKogyoBus.KotakeMachiNiChoume.171.1
KokusaiKogyoBus.TagaraIchiChoume.106.1,田柄一丁目,1,35.7594502093826,139.648085757389,KokusaiKogyoBus.TagaraIchiChoume.106.1
KokusaiKogyoBus.SakuraDaiNiChoume.132.1,桜台二丁目,1,35.7430950281903,139.662976646272,KokusaiKogyoBus.SakuraDaiNiChoume.132.1
KokusaiKogyoBus.TagaraIchiChoume.106.2,田柄一丁目,2,35.759352594225,139.649207627852,KokusaiKogyoBus.TagaraIchiChoume.106.2
KokusaiKogyoBus.Toyotamakita.173.1,豊玉北,1,35.7363412627421,139.664158459148,KokusaiKogyoBus.Toyotamakita.173.1
KokusaiKogyoBus.MinamidaE.107.1,南田柄,1,35.7598786919864,139.645417780929,KokusaiKogyoBus.MinamidaE.107.1
NishiTokyoBus.Yokosawa.8060.17,横沢,17,35.7306229441692,139.239569824577,NishiTokyoBus.Yokosawa.8060.17
KokusaiKogyoBus.MinamidaE.107.2,南田柄,2,35.7598136166009,139.646217411819,KokusaiKogyoBus.MinamidaE.107.2
KokusaiKogyoBus.TagaraChuugakkou.108.1,田柄中学校,1,35.7600955752096,139.641457605074,KokusaiKogyoBus.TagaraChuugakkou.108.1
KokusaiKogyoBus.ShimoAkatsuka.177.2,下赤塚（川越街道上）,2,35.7695184310432,139.644764235283,KokusaiKogyoBus.ShimoAkatsuka.177.2
KokusaiKogyoBus.TagaraChuugakkou.108.2,田柄中学校,2,35.7600684659339,139.641994669925,KokusaiKogyoBus.TagaraChuugakkou.108.2
KokusaiKogyoBus.SakuradaiEki.134.1,桜台駅,1,35.7388094384463,139.661195286455,KokusaiKogyoBus.SakuradaiEki.134.1
KokusaiKogyoBus.TagaraMachi.109.1,田柄町,1,35.7595041320942,139.635982833585,KokusaiKogyoBus.TagaraMachi.109.1
KokusaiKogyoBus.HikarigaokaAkiNoHiShougakkou.110.1,光が丘秋の陽小学校,1,35.7607680624445,139.634743738512,KokusaiKogyoBus.HikarigaokaAkiNoHiShougakkou.110.1
KokusaiKogyoBus.HikarigaokaSanChoume.112.12,光が丘三丁目,12,35.7560701695452,139.632090073706,KokusaiKogyoBus.HikarigaokaSanChoume.112.12
KokusaiKogyoBus.HikarigaokaAkiNoHiShougakkou.110.2,光が丘秋の陽小学校,2,35.7608711263834,139.634518059078,KokusaiKogyoBus.HikarigaokaAkiNoHiShougakkou.110.2
KokusaiKogyoBus.HikarigaokaNiChoume.111.2,光が丘二丁目,2,35.7600790345029,139.631521383817,KokusaiKogyoBus.HikarigaokaNiChoume.111.2
KokusaiKogyoBus.KaishinDaiSanChuugakkou.131.2,開進第三中学校,2,35.7450696516512,139.663696991511,KokusaiKogyoBus.KaishinDaiSanChuugakkou.131.2
KokusaiKogyoBus.HikarigaokaSanChoume.112.1,光が丘三丁目,1,35.7551262627596,139.631991378865,KokusaiKogyoBus.HikarigaokaSanChoume.112.1
KokusaiKogyoBus.HikarigaokaSanChoume.112.2,光が丘三丁目,2,35.7560647450997,139.632100923698,KokusaiKogyoBus.HikarigaokaSanChoume.112.2
KokusaiKogyoBus.HikarigaokaSanChoume.112.13,光が丘三丁目,13,35.7550937143702,139.631992465156,KokusaiKogyoBus.HikarigaokaSanChoume.112.13
KokusaiKogyoBus.TakamatsuYonChoume.113.1,高松四丁目,1,35.7536940881509,139.630343356167,KokusaiKogyoBus.TakamatsuYonChoume.113.1
KokusaiKogyoBus.TakamatsuYonChoume.113.2,高松四丁目,2,35.7537591702683,139.629794355038,KokusaiKogyoBus.TakamatsuYonChoume.113.2
KokusaiKogyoBus.HikarigaokaMinamiDoori.114.1,光が丘南通り,1,35.7536614649428,139.6275538809,KokusaiKogyoBus.HikarigaokaMinamiDoori.114.1
KokusaiKogyoBus.HikarigaokaMinamiDoori.114.2,光が丘南通り,2,35.7537265491845,139.627084083113,KokusaiKogyoBus.HikarigaokaMinamiDoori.114.2
KokusaiKogyoBus.HikarigaokaNanaChoume.115.1,光が丘七丁目,1,35.7553973514782,139.626467748608,KokusaiKogyoBus.HikarigaokaNanaChoume.115.1
KokusaiKogyoBus.HikarigaokaNanaChoume.115.2,光が丘七丁目,2,35.7550935693518,139.626583853433,KokusaiKogyoBus.HikarigaokaNanaChoume.115.2
KokusaiKogyoBus.HikarigaokaDanchi.116.1,光が丘団地,1,35.7586521805441,139.625991312247,KokusaiKogyoBus.HikarigaokaDanchi.116.1
KokusaiKogyoBus.HikarigaokaDanchi.116.2,光が丘団地,2,35.7583483946668,139.625967455007,KokusaiKogyoBus.HikarigaokaDanchi.116.2
KokusaiKogyoBus.NerimaHikarigaokaByouin.119.13,練馬光が丘病院,13,35.7621946455233,139.630172671671,KokusaiKogyoBus.NerimaHikarigaokaByouin.119.13
KokusaiKogyoBus.HikarigaokaIma.120.1,光が丘ＩＭＡ,1,35.7586305569177,139.628800319276,KokusaiKogyoBus.HikarigaokaIma.120.1
KokusaiKogyoBus.HikawadaiNiChoume.126.1,氷川台二丁目,1,35.7544816795158,139.667791315875,KokusaiKogyoBus.HikawadaiNiChoume.126.1
KokusaiKogyoBus.HikarigaokaEki.121.99,光が丘駅,99,35.7589723324754,139.629440442073,KokusaiKogyoBus.HikarigaokaEki.121.99
KokusaiKogyoBus.JieitaiMinami.122.1,自衛隊南,1,35.7591901156316,139.659027763949,KokusaiKogyoBus.JieitaiMinami.122.1
KokusaiKogyoBus.HeiwaDaiYonChoume.123.4,平和台四丁目,4,35.758050970611,139.660877696267,KokusaiKogyoBus.HeiwaDaiYonChoume.123.4
KokusaiKogyoBus.HeiwaDaiSanChoume.124.1,平和台三丁目,1,35.7567056986743,139.663214791728,KokusaiKogyoBus.HeiwaDaiSanChoume.124.1
KokusaiKogyoBus.HikawadaiNiChoume.126.2,氷川台二丁目,2,35.7547474798136,139.667351889325,KokusaiKogyoBus.HikawadaiNiChoume.126.2
KokusaiKogyoBus.HikawadaiYuubinKyoku.127.1,氷川台郵便局,1,35.7526264065064,139.667303151013,KokusaiKogyoBus.HikawadaiYuubinKyoku.127.1
KokusaiKogyoBus.HikawadaiYuubinKyoku.127.2,氷川台郵便局,2,35.7524256845269,139.667052529359,KokusaiKogyoBus.HikawadaiYuubinKyoku.127.2
KokusaiKogyoBus.HikawadaiSanChoume.128.2,氷川台三丁目,2,35.7503425418309,139.665418637636,KokusaiKogyoBus.HikawadaiSanChoume.128.2
KokusaiKogyoBus.HikawadaiEki.129.1,氷川台駅,1,35.7486337751633,139.666363721883,KokusaiKogyoBus.HikawadaiEki.129.1
KokusaiKogyoBus.HikawadaiEki.129.2,氷川台駅,2,35.7484656081539,139.666357218809,KokusaiKogyoBus.HikawadaiEki.129.2
KokusaiKogyoBus.HikawadaiEki.129.12,氷川台駅,12,35.7494312052417,139.666132589514,KokusaiKogyoBus.HikawadaiEki.129.12
KokusaiKogyoBus.HikawadaiEki.129.13,氷川台駅,13,35.7496481842239,139.665741988916,KokusaiKogyoBus.HikawadaiEki.129.13
KokusaiKogyoBus.SakuraDaiSanChoume.130.1,桜台三丁目,1,35.7467025091913,139.664137426387,KokusaiKogyoBus.SakuraDaiSanChoume.130.1
KokusaiKogyoBus.SakuraDaiSanChoume.130.2,桜台三丁目,2,35.7467567586535,139.664215542564,KokusaiKogyoBus.SakuraDaiSanChoume.130.2
KokusaiKogyoBus.KaishinDaiSanChuugakkou.131.1,開進第三中学校,1,35.7450805014447,139.663708925823,KokusaiKogyoBus.KaishinDaiSanChuugakkou.131.1
KokusaiKogyoBus.NerimaEkimaedoori.136.1,練馬駅前通り,1,35.735212646706,139.654061705633,KokusaiKogyoBus.NerimaEkimaedoori.136.1
KokusaiKogyoBus.NerimaEkimaedoori.136.2,練馬駅前通り,2,35.7354025173774,139.654243974165,KokusaiKogyoBus.NerimaEkimaedoori.136.2
KokusaiKogyoBus.NerimaKuyakusho.137.1,練馬区役所,1,35.7360371498837,139.651943796635,KokusaiKogyoBus.NerimaKuyakusho.137.1
KokusaiKogyoBus.NerimaKuyakusho.137.10,練馬区役所,10,35.735787615751,139.652083768776,KokusaiKogyoBus.NerimaKuyakusho.137.10
KokusaiKogyoBus.Choumoto.179.1,帳元,1,35.7732015995965,139.63628824406,KokusaiKogyoBus.Choumoto.179.1
KokusaiKogyoBus.EkodaFutamata.37.10,江古田二又,10,35.7359726199411,139.673078072747,KokusaiKogyoBus.EkodaFutamata.37.10
KokusaiKogyoBus.KitamachiSanChoume.176.2,北町三丁目（練馬区）,2,35.7676796042894,139.650685030593,KokusaiKogyoBus.KitamachiSanChoume.176.2
KokusaiKogyoBus.KamiitabashiEki.138.1,上板橋駅,1,35.763579207823,139.676922117408,KokusaiKogyoBus.KamiitabashiEki.138.1
KokusaiKogyoBus.KamiitabashiEki.138.10,上板橋駅,10,35.7635846325596,139.676922117189,KokusaiKogyoBus.KamiitabashiEki.138.10
KokusaiKogyoBus.ShichikenyaKouenIriguchi.139.2,七軒家公園入口,2,35.7637418510734,139.673240782799,KokusaiKogyoBus.ShichikenyaKouenIriguchi.139.2
KokusaiKogyoBus.AgeitaKyouNiChoume.140.1,上板橋二丁目,1,35.7620818160159,139.670794226042,KokusaiKogyoBus.AgeitaKyouNiChoume.140.1
KokusaiKogyoBus.KasugaMachi.146.2,春日町,2,35.754578742131,139.64607657612,KokusaiKogyoBus.KasugaMachi.146.2
KokusaiKogyoBus.KasugaMachiIchiChoume.150.1,春日町一丁目,1,35.7469027877735,139.647859503637,KokusaiKogyoBus.KasugaMachiIchiChoume.150.1
KokusaiKogyoBus.JieitaiMae.174.2,自衛隊前,2,35.764929540894,139.661042334939,KokusaiKogyoBus.JieitaiMae.174.2
KokusaiKogyoBus.AgeitaKyouNiChoume.140.2,上板橋二丁目,2,35.7621686118,139.670794222534,KokusaiKogyoBus.AgeitaKyouNiChoume.140.2
KokusaiKogyoBus.Sakuragawa.156.2,桜川,2,35.7611542826035,139.674389878349,KokusaiKogyoBus.Sakuragawa.156.2
KokusaiKogyoBus.TamakiHachiKousokuKa.235.2,環八高速下,2,35.7771844032517,139.675297356297,KokusaiKogyoBus.TamakiHachiKousokuKa.235.2
KokusaiKogyoBus.NishiSupo-tsuSenta-Iriguchi.4576.11,西スポーツセンター入口,11,35.8030048561262,139.707949787827,KokusaiKogyoBus.NishiSupo-tsuSenta-Iriguchi.4576.11
KokusaiKogyoBus.NoukyouMae.148.1,農協前（練馬区）,1,35.7487795868667,139.641902902511,KokusaiKogyoBus.NoukyouMae.148.1
KokusaiKogyoBus.KitamachiIchiChoume.141.1,北町一丁目（練馬区）,1,35.7631287061005,139.667662939217,KokusaiKogyoBus.KitamachiIchiChoume.141.1
KokusaiKogyoBus.HeiwaDaiIchiChoume.143.2,平和台一丁目,2,35.7590762721622,139.661859559316,KokusaiKogyoBus.HeiwaDaiIchiChoume.143.2
KokusaiKogyoBus.HeiwaDaiIchiChoume.143.1,平和台一丁目,1,35.7594560213926,139.662518125202,KokusaiKogyoBus.HeiwaDaiIchiChoume.143.1
KokusaiKogyoBus.KitamachiIchiChoume.141.2,北町一丁目（練馬区）,2,35.7631015848646,139.667754078407,KokusaiKogyoBus.KitamachiIchiChoume.141.2
KokusaiKogyoBus.ShinsuiMidoriDou.4837.2,親水緑道,2,35.8127655383982,139.766692234531,KokusaiKogyoBus.ShinsuiMidoriDou.4837.2
KokusaiKogyoBus.AsakaKeisatsuSho.218.3,朝霞警察署,3,35.7899529391256,139.586668303987,KokusaiKogyoBus.AsakaKeisatsuSho.218.3
KokusaiKogyoBus.Harumachi.707.2,原町,2,35.7991988265957,139.706666413916,KokusaiKogyoBus.Harumachi.707.2
KokusaiKogyoBus.Kasugano.149.2,春日野,2,35.7481720950839,139.644837790622,KokusaiKogyoBus.Kasugano.149.2
KokusaiKogyoBus.KasugaMachiIchiChoume.150.2,春日町一丁目,2,35.747168596256,139.647724955725,KokusaiKogyoBus.KasugaMachiIchiChoume.150.2
KokusaiKogyoBus.Toshimaen.151.1,豊島園,1,35.742215848286,139.649086802095,KokusaiKogyoBus.Toshimaen.151.1
KokusaiKogyoBus.Toshimaen.151.2,豊島園,2,35.7421941485249,139.649056423606,KokusaiKogyoBus.Toshimaen.151.2
KokusaiKogyoBus.NerimaIchiChoume.152.1,練馬一丁目,1,35.7381690283225,139.650337944203,KokusaiKogyoBus.NerimaIchiChoume.152.1
KokusaiKogyoBus.KomoneChuuou.265.1,小茂根中央,1,35.7514170439137,139.680479164542,KokusaiKogyoBus.KomoneChuuou.265.1
KokusaiKogyoBus.NerimaIchiChoume.152.2,練馬一丁目,2,35.739443806078,139.649019645336,KokusaiKogyoBus.NerimaIchiChoume.152.2
KokusaiKogyoBus.NerimaKuyakushoIriguchi.153.1,練馬区役所入口,1,35.736910523639,139.651613928299,KokusaiKogyoBus.NerimaKuyakushoIriguchi.153.1
KokusaiKogyoBus.Hazawa.172.1,羽沢（新桜台駅）,1,35.7414949029779,139.669391096846,KokusaiKogyoBus.Hazawa.172.1
KokusaiKogyoBus.NerimaKuyakushoIriguchi.153.2,練馬区役所入口,2,35.737013590522,139.651497831568,KokusaiKogyoBus.NerimaKuyakushoIriguchi.153.2
KokusaiKogyoBus.Sakuragawa.156.1,桜川,1,35.76112715761,139.674341055466,KokusaiKogyoBus.Sakuragawa.156.1
KokusaiKogyoBus.AgeitaKyouIchiChoume.157.1,上板橋一丁目,1,35.7600206158769,139.678233998813,KokusaiKogyoBus.AgeitaKyouIchiChoume.157.1
KokusaiKogyoBus.AgeitaKyouIchiChoume.157.2,上板橋一丁目,2,35.7601291068499,139.678094032354,KokusaiKogyoBus.AgeitaKyouIchiChoume.157.2
KokusaiKogyoBus.ToushinMachiIchiChoume.158.2,東新町一丁目,2,35.7584692519825,139.682359145307,KokusaiKogyoBus.ToushinMachiIchiChoume.158.2
KokusaiKogyoBus.TokiwadaiEkiIriguchi.159.1,ときわ台駅入口,1,35.7561095944961,139.68619246559,KokusaiKogyoBus.TokiwadaiEkiIriguchi.159.1
KokusaiKogyoBus.TokiwadaiEkiIriguchi.159.2,ときわ台駅入口,2,35.755702766142,139.687193916115,KokusaiKogyoBus.TokiwadaiEkiIriguchi.159.2
KokusaiKogyoBus.ShimoAtamaKyou.160.1,下頭橋,1,35.7530935649898,139.690812420997,KokusaiKogyoBus.ShimoAtamaKyou.160.1
KokusaiKogyoBus.OoyaguchikamiMachi.161.1,大谷口上町,1,35.7518188030101,139.692716607757,KokusaiKogyoBus.OoyaguchikamiMachi.161.1
KokusaiKogyoBus.OoyaguchikamiMachi.161.2,大谷口上町,2,35.7520737615542,139.692564700625,KokusaiKogyoBus.OoyaguchikamiMachi.161.2
KokusaiKogyoBus.Ooyama.162.1,大山,1,35.7493614907367,139.696196229429,KokusaiKogyoBus.Ooyama.162.1
KokusaiKogyoBus.KitamachiNiChoume.175.2,北町二丁目（練馬区）,2,35.7658408071561,139.657709247862,KokusaiKogyoBus.KitamachiNiChoume.175.2
KokusaiKogyoBus.MinamimachiKouen.4577.10,南町公園,10,35.8036839669515,139.705490116753,KokusaiKogyoBus.MinamimachiKouen.4577.10
KokusaiKogyoBus.Ooyama.162.2,大山,2,35.7493886162267,139.696263496929,KokusaiKogyoBus.Ooyama.162.2
KokusaiKogyoBus.KamiitabashiEkiMae.226.10,上板橋駅前,10,35.7640999923468,139.677287733714,KokusaiKogyoBus.KamiitabashiEkiMae.226.10
SeibuBus.Kodairaekiiriguchi.70036.3,小平駅入口,3,35.7306905555556,139.486215833333,SeibuBus.Kodairaekiiriguchi.70036.3
KokusaiKogyoBus.DaiRokuShougakkou.163.1,第六小学校（板橋区）,1,35.7465298807669,139.700016549136,KokusaiKogyoBus.DaiRokuShougakkou.163.1
KokusaiKogyoBus.WakakiShougakkou.233.2,若木小学校,2,35.769432479971,139.676231835222,KokusaiKogyoBus.WakakiShougakkou.233.2
KokusaiKogyoBus.KitamachiSanChoume.176.10,北町三丁目（練馬区）,10,35.7676850290258,139.650685030374,KokusaiKogyoBus.KitamachiSanChoume.176.10
KokusaiKogyoBus.KouwaShougakkou.197.1,光和小学校,1,35.7472000791423,139.607975726636,KokusaiKogyoBus.KouwaShougakkou.197.1
KokusaiKogyoBus.DaiRokuShougakkou.163.2,第六小学校（板橋区）,2,35.7464322364963,139.700053442312,KokusaiKogyoBus.DaiRokuShougakkou.163.2
KokusaiKogyoBus.NarimasuEkiMinamiguchi.180.3,成増駅南口,3,35.7771995283519,139.632490662147,KokusaiKogyoBus.NarimasuEkiMinamiguchi.180.3
KokusaiKogyoBus.DoshidaYahata.187.3,土支田八幡,3,35.7656118069088,139.614415409004,KokusaiKogyoBus.DoshidaYahata.187.3
KokusaiKogyoBus.NakamaruMachiSakagami.164.1,中丸町坂上,1,35.7445173640721,139.702274468356,KokusaiKogyoBus.NakamaruMachiSakagami.164.1
KokusaiKogyoBus.AsagasumiDaiGoShougakkou.224.2,朝霞第五小学校,2,35.8102206545857,139.579848403779,KokusaiKogyoBus.AsagasumiDaiGoShougakkou.224.2
KokusaiKogyoBus.SekisuiJuutaku.1839.2,積水住宅,2,35.8063817826972,139.60804060595,KokusaiKogyoBus.SekisuiJuutaku.1839.2
KokusaiKogyoBus.NakamaruMachiSakagami.164.2,中丸町坂上,2,35.744593316914,139.702517500217,KokusaiKogyoBus.NakamaruMachiSakagami.164.2
NishiTokyoBus.NishiChildWelfareIriguchi.8562.27,西児童館入口,27,35.7718160370773,139.303120427727,NishiTokyoBus.NishiChildWelfareIriguchi.8562.27
KokusaiKogyoBus.IkebukuroYonChoume.165.1,池袋四丁目,1,35.7391958884666,139.709393219929,KokusaiKogyoBus.IkebukuroYonChoume.165.1
KokusaiKogyoBus.IkebukuroYonChoume.165.2,池袋四丁目,2,35.7393130801504,139.710039861714,KokusaiKogyoBus.IkebukuroYonChoume.165.2
KokusaiKogyoBus.Komone.169.2,小茂根,2,35.7482597928419,139.678454724365,KokusaiKogyoBus.Komone.169.2
KokusaiKogyoBus.ToshimaSeisouJimusho.166.1,豊島清掃事務所,1,35.7374633240668,139.712987820007,KokusaiKogyoBus.ToshimaSeisouJimusho.166.1
KokusaiKogyoBus.ToshimaSeisouJimusho.166.2,豊島清掃事務所,2,35.7378397917992,139.712652546784,KokusaiKogyoBus.ToshimaSeisouJimusho.166.2
KokusaiKogyoBus.Sanshainshithi.167.1,サンシャインシティ,1,35.7281513208069,139.716715093539,KokusaiKogyoBus.Sanshainshithi.167.1
KokusaiKogyoBus.Sanshainshithi.167.2,サンシャインシティ,2,35.7296811048693,139.717022080353,KokusaiKogyoBus.Sanshainshithi.167.2
KokusaiKogyoBus.IkebukuroEkiHigashiguchi.168.8,池袋駅東口,8,35.7309634296876,139.713932012926,KokusaiKogyoBus.IkebukuroEkiHigashiguchi.168.8
KokusaiKogyoBus.IkebukuroEkiHigashiguchi.168.10,池袋駅東口,10,35.7308744666248,139.714029664485,KokusaiKogyoBus.IkebukuroEkiHigashiguchi.168.10
KokusaiKogyoBus.MusashinoByouin.170.2,武蔵野病院,2,35.7461657670014,139.675567684239,KokusaiKogyoBus.MusashinoByouin.170.2
KokusaiKogyoBus.KotakeMachiNiChoume.171.2,小竹町二丁目,2,35.7441910898003,139.672845555836,KokusaiKogyoBus.KotakeMachiNiChoume.171.2
KokusaiKogyoBus.ShirakoSakagami.210.1,白子坂上,1,35.7820109204846,139.619484845539,KokusaiKogyoBus.ShirakoSakagami.210.1
KokusaiKogyoBus.SasaMe.750.3,笹目,3,35.8125963052056,139.646404063784,KokusaiKogyoBus.SasaMe.750.3
KokusaiKogyoBus.HigashiooizumiKouban.203.1,東大泉交番,1,35.7502917723207,139.592798940187,KokusaiKogyoBus.HigashiooizumiKouban.203.1
KokusaiKogyoBus.JieitaiMae.174.10,自衛隊前,10,35.7649241158081,139.661029315431,KokusaiKogyoBus.JieitaiMae.174.10
KokusaiKogyoBus.KitamachiNiChoume.175.1,北町二丁目（練馬区）,1,35.7662638895984,139.655958077416,KokusaiKogyoBus.KitamachiNiChoume.175.1
NishiTokyoBus.MusashinoParkNishi.8553.29,武蔵野公園西,29,35.7749088550786,139.30845928637,NishiTokyoBus.MusashinoParkNishi.8553.29
KokusaiKogyoBus.KitamachiNiChoume.175.10,北町二丁目（練馬区）,10,35.7658353825944,139.657715757945,KokusaiKogyoBus.KitamachiNiChoume.175.10
KokusaiKogyoBus.TaniharaGoChoume.194.1,谷原五丁目,1,35.7526193755877,139.607408065034,KokusaiKogyoBus.TaniharaGoChoume.194.1
KokusaiKogyoBus.TokumaruMachi.241.3,徳丸町,3,35.775838756718,139.66368272876,KokusaiKogyoBus.TokumaruMachi.241.3
KokusaiKogyoBus.NarimasuEkiMinamiguchi.180.5,成増駅南口,5,35.7766299323548,139.632539509134,KokusaiKogyoBus.NarimasuEkiMinamiguchi.180.5
NishiTokyoBus.Kaniwa.6022.10,神庭,10,35.8019524717795,139.108617693318,NishiTokyoBus.Kaniwa.6022.10
NishiTokyoBus.Sekiba.1250.10,関場,10,35.6712576899983,139.211356845661,NishiTokyoBus.Sekiba.1250.10
KokusaiKogyoBus.NarimasuEkiMinamiguchi.180.10,成増駅南口,10,35.7766462063889,139.632532998613,KokusaiKogyoBus.NarimasuEkiMinamiguchi.180.10
KokusaiKogyoBus.NarimasuEkiIriguchi.181.1,成増駅入口,1,35.7771506459961,139.630264290796,KokusaiKogyoBus.NarimasuEkiIriguchi.181.1
KokusaiKogyoBus.AsahiMachiSanChoume.182.1,旭町三丁目（練馬区）,1,35.7769226744708,139.625321143651,KokusaiKogyoBus.AsahiMachiSanChoume.182.1
KokusaiKogyoBus.HizaoriDanchiIriguchi.220.1,膝折団地入口,1,35.793830409905,139.581799854789,KokusaiKogyoBus.HizaoriDanchiIriguchi.220.1
KokusaiKogyoBus.WakouShiEkiIriguchi.212.1,和光市駅入口,1,35.7840720645825,139.609953237322,KokusaiKogyoBus.WakouShiEkiIriguchi.212.1
KokusaiKogyoBus.DoshidaIchiChoume.186.3,土支田一丁目,3,35.7664527106993,139.617013895581,KokusaiKogyoBus.DoshidaIchiChoume.186.3
KokusaiKogyoBus.AsahiMachiSanChoume.182.2,旭町三丁目（練馬区）,2,35.7759679311956,139.625705264159,KokusaiKogyoBus.AsahiMachiSanChoume.182.2
KokusaiKogyoBus.NishidaiKousatenMinami.236.2,西台交差点南,2,35.7775424088402,139.674291567861,KokusaiKogyoBus.NishidaiKousatenMinami.236.2
NishiTokyoBus.YuyakeKoyake.1240.10,夕焼小焼,10,35.67042,139.214307,NishiTokyoBus.YuyakeKoyake.1240.10
KokusaiKogyoBus.UshiBou.183.1,牛房,1,35.7726859425107,139.624838499879,KokusaiKogyoBus.UshiBou.183.1
KokusaiKogyoBus.UshiBou.183.2,牛房,2,35.7723116288408,139.624582460363,KokusaiKogyoBus.UshiBou.183.2
KokusaiKogyoBus.AsakaKenZeiJimusho.223.1,朝霞県税事務所,1,35.8088590130246,139.578622434606,KokusaiKogyoBus.AsakaKenZeiJimusho.223.1
KokusaiKogyoBus.ShirakoMukaiyama.184.1,白子向山,1,35.76954493411,139.621628179012,KokusaiKogyoBus.ShirakoMukaiyama.184.1
KokusaiKogyoBus.NishiaraiRikkyou.570.2,西新井陸橋,2,35.7782235705447,139.788407289068,KokusaiKogyoBus.NishiaraiRikkyou.570.2
KokusaiKogyoBus.DoshidaNiChoume.188.1,土支田二丁目,1,35.7640656453244,139.610246988807,KokusaiKogyoBus.DoshidaNiChoume.188.1
KokusaiKogyoBus.ShakujiiMachiHachiChoume.201.1,石神井町八丁目,1,35.7464783469127,139.598931385292,KokusaiKogyoBus.ShakujiiMachiHachiChoume.201.1
KokusaiKogyoBus.ShirakoMukaiyama.184.2,白子向山,2,35.7697510817988,139.621915689661,KokusaiKogyoBus.ShirakoMukaiyama.184.2
SeibuBus.Wada.110081.2,和田（所沢市）,2,35.7974591666667,139.511436388889,SeibuBus.Wada.110081.2
KokusaiKogyoBus.DoshidaKouban.185.1,土支田交番,1,35.7677927079813,139.620274198137,KokusaiKogyoBus.DoshidaKouban.185.1
KokusaiKogyoBus.DoshidaIchiChoume.186.1,土支田一丁目,1,35.7664472857884,139.617007385936,KokusaiKogyoBus.DoshidaIchiChoume.186.1
KokusaiKogyoBus.BikuniKyou.191.1,比丘尼橋,1,35.7562809207465,139.601739996223,KokusaiKogyoBus.BikuniKyou.191.1
KokusaiKogyoBus.DoshidaIchiChoume.186.2,土支田一丁目,2,35.7664635665425,139.617251505161,KokusaiKogyoBus.DoshidaIchiChoume.186.2
KokusaiKogyoBus.DoshidaYahata.187.1,土支田八幡,1,35.7656118067343,139.61440889914,KokusaiKogyoBus.DoshidaYahata.187.1
NishiTokyoBus.Shimowada.2880.10,下和田,10,35.7105389186288,139.092859877954,NishiTokyoBus.Shimowada.2880.10
SeibuBus.Kodairaekiiriguchi.70036.4,小平駅入口,4,35.7298911111111,139.487674166667,SeibuBus.Kodairaekiiriguchi.70036.4
KokusaiKogyoBus.MiyaNoShita.243.2,宮の下,2,35.7756162498338,139.660230340023,KokusaiKogyoBus.MiyaNoShita.243.2
KokusaiKogyoBus.DoshidaYahata.187.2,土支田八幡,2,35.7656443533486,139.614341629237,KokusaiKogyoBus.DoshidaYahata.187.2
KokusaiKogyoBus.DoshidaNiChoume.188.2,土支田二丁目,2,35.7642175464615,139.610564881012,KokusaiKogyoBus.DoshidaNiChoume.188.2
KokusaiKogyoBus.DoshidaNiChoume.188.3,土支田二丁目,3,35.7640764949424,139.610252413256,KokusaiKogyoBus.DoshidaNiChoume.188.3
KokusaiKogyoBus.OoizumiMachiNiChoume.189.1,大泉町二丁目,1,35.7608703712826,139.606353134378,KokusaiKogyoBus.OoizumiMachiNiChoume.189.1
KokusaiKogyoBus.OoizumiMachiNiChoume.189.2,大泉町二丁目,2,35.7604906297685,139.6059810025,KokusaiKogyoBus.OoizumiMachiNiChoume.189.2
KokusaiKogyoBus.MiharaTaipei.190.1,三原台北,1,35.7573658760032,139.602038321215,KokusaiKogyoBus.MiharaTaipei.190.1
KokusaiKogyoBus.BikuniKyou.191.2,比丘尼橋,2,35.756758283966,139.6012332926,KokusaiKogyoBus.BikuniKyou.191.2
KokusaiKogyoBus.MiharadaiNiChoume.192.1,三原台二丁目,1,35.755581202178,139.604442702766,KokusaiKogyoBus.MiharadaiNiChoume.192.1
KokusaiKogyoBus.NarimasuIchiChoume.207.1,成増一丁目,1,35.7755992067628,139.631581515854,KokusaiKogyoBus.NarimasuIchiChoume.207.1
KokusaiKogyoBus.Dounai.934.10,道内,10,35.8205576927984,139.769030044199,KokusaiKogyoBus.Dounai.934.10
KokusaiKogyoBus.NarimasuEkimae.208.2,成増駅前,2,35.7756426436571,139.633035383624,KokusaiKogyoBus.NarimasuEkimae.208.2
KokusaiKogyoBus.TokiwadaiEki.227.3,ときわ台駅,3,35.7591963392909,139.688786521642,KokusaiKogyoBus.TokiwadaiEki.227.3
KokusaiKogyoBus.TokiwadaiEki.227.10,ときわ台駅,10,35.7591909378078,139.689652333775,KokusaiKogyoBus.TokiwadaiEki.227.10
KokusaiKogyoBus.TokiwadaiKyoukai.228.1,常盤台教会,1,35.7596845193698,139.687065727855,KokusaiKogyoBus.TokiwadaiKyoukai.228.1
KokusaiKogyoBus.TokiwadaiKyoukai.228.2,常盤台教会,2,35.7596465506427,139.687230645945,KokusaiKogyoBus.TokiwadaiKyoukai.228.2
KokusaiKogyoBus.ChuuouDoori.229.1,中央通り（板橋区常盤台）,1,35.7615613795344,139.68339083377,KokusaiKogyoBus.ChuuouDoori.229.1
KokusaiKogyoBus.TokumaruChiikiSenta-.244.2,徳丸地域センター,2,35.7734517605054,139.659503492734,KokusaiKogyoBus.TokumaruChiikiSenta-.244.2
KokusaiKogyoBus.OujiYonChoume.256.2,王子四丁目,2,35.7627182845488,139.736829176672,KokusaiKogyoBus.OujiYonChoume.256.2
KokusaiKogyoBus.TodaShiyakusho.773.10,戸田市役所,10,35.8176497297109,139.67711522493,KokusaiKogyoBus.TodaShiyakusho.773.10
